{"id": 0, "business_name": "Graphics Design Software", "ts": 1200883648, "lat": 40.09325, "lon": 116.66365, "status": 1}
{"id": 1, "business_name": "Max Electronics Virtual", "ts": 1200232287, "lat": 39.70764, "lon": 116.50862, "status": 4}
{"id": 2, "business_name": "Alpha Alpha", "ts": 1201971979, "lat": 40.02588, "lon": 116.41379, "status": 4}
{"id": 3, "business_name": "Medicine Design Telecom", "ts": 1200145984, "lat": 39.95905, "lon": 116.71246, "status": 2}
{"id": 4, "business_name": "Net Architecture East", "ts": 1199508303, "lat": 39.90046, "lon": 116.68536, "status": 0}
{"id": 5, "business_name": "Advanced Telecom Systems", "ts": 1201959418, "lat": 39.79211, "lon": 116.32586, "status": 0}
{"id": 6, "business_name": "North Electronics Signal", "ts": 1201512955, "lat": 39.91682, "lon": 116.43455, "status": 3}
{"id": 7, "business_name": "Star Vision", "ts": 1200969140, "lat": 39.79586, "lon": 116.80044, "status": 2}
{"id": 8, "business_name": "Contract Industries Vision", "ts": 1201720908, "lat": 39.70786, "lon": 116.80585, "status": 2}
{"id": 9, "business_name": "Net Data", "ts": 1201468335, "lat": 39.94318, "lon": 116.83636, "status": 4}
{"id": 10, "business_name": "Speed Virtual", "ts": 1200196345, "lat": 39.94359, "lon": 116.78605, "status": 4}
{"id": 11, "business_name": "Vision Building Resource", "ts": 1201942852, "lat": 39.72563, "lon": 116.81561, "status": 3}
{"id": 12, "business_name": "Star Power Power", "ts": 1200853835, "lat": 39.86615, "lon": 116.14736, "status": 2}
{"id": 13, "business_name": "Architecture Consulting", "ts": 1200826848, "lat": 39.96053, "lon": 116.45233, "status": 2}
{"id": 14, "business_name": "Graphics People Research", "ts": 1201824192, "lat": 39.70337, "lon": 116.14632, "status": 1}
{"id": 15, "business_name": "Universal Provider", "ts": 1199442780, "lat": 40.03836, "lon": 116.54902, "status": 1}
{"id": 16, "business_name": "Resource Network North", "ts": 1201510302, "lat": 40.02276, "lon": 116.56726, "status": 3}
{"id": 17, "business_name": "Telecom Industries Pacific", "ts": 1201661807, "lat": 39.85523, "lon": 116.19101, "status": 0}
{"id": 18, "business_name": "Technology Contract Venture", "ts": 1200443739, "lat": 40.05129, "lon": 116.56807, "status": 1}
{"id": 19, "business_name": "Hill Direct", "ts": 1201384880, "lat": 39.916, "lon": 116.41293, "status": 2}
{"id": 20, "business_name": "West Industries", "ts": 1201919841, "lat": 40.01155, "lon": 116.62909, "status": 2}
{"id": 21, "business_name": "East Telecom", "ts": 1201775937, "lat": 39.84183, "lon": 116.73466, "status": 4}
{"id": 22, "business_name": "Net Venture", "ts": 1199264837, "lat": 39.98196, "lon": 116.49972, "status": 2}
{"id": 23, "business_name": "Building Architecture", "ts": 1199906481, "lat": 40.09443, "lon": 116.60128, "status": 2}
{"id": 24, "business_name": "Data Research Advanced", "ts": 1199800642, "lat": 39.88912, "lon": 116.14001, "status": 1}
{"id": 25, "business_name": "Technology Telecom", "ts": 1200771043, "lat": 39.73222, "lon": 116.8825, "status": 2}
{"id": 26, "business_name": "Consulting Frontier Architecture", "ts": 1199517858, "lat": 40.00275, "lon": 116.19304, "status": 4}
{"id": 27, "business_name": "Industries Interactive Direct", "ts": 1199360703, "lat": 39.87174, "lon": 116.14037, "status": 2}
{"id": 28, "business_name": "Federated Resource", "ts": 1201862750, "lat": 39.88818, "lon": 116.13149, "status": 3}
{"id": 29, "business_name": "Studio Frontier Application", "ts": 1201556485, "lat": 39.78575, "lon": 116.70402, "status": 0}
{"id": 30, "business_name": "Data Electronic Speed", "ts": 1199642333, "lat": 39.91211, "lon": 116.8884, "status": 0}
{"id": 31, "business_name": "Federated Adventure Hardware", "ts": 1199930909, "lat": 40.02149, "lon": 116.3202, "status": 2}
{"id": 32, "business_name": "Atlantic Federated People", "ts": 1201120400, "lat": 40.02123, "lon": 116.1783, "status": 2}
{"id": 33, "business_name": "Electronic Signal", "ts": 1200272504, "lat": 39.76469, "lon": 116.70433, "status": 4}
{"id": 34, "business_name": "Federated Net Max", "ts": 1200300166, "lat": 39.80704, "lon": 116.79342, "status": 0}
{"id": 35, "business_name": "Internet Data", "ts": 1199675576, "lat": 39.86203, "lon": 116.45743, "status": 2}
{"id": 36, "business_name": "Studio Medicine", "ts": 1201531864, "lat": 40.07739, "lon": 116.45017, "status": 4}
{"id": 37, "business_name": "Bell Application Graphics", "ts": 1199696561, "lat": 39.95677, "lon": 116.72287, "status": 1}
{"id": 38, "business_name": "Power Pacific Virtual", "ts": 1200642748, "lat": 39.80371, "lon": 116.71136, "status": 1}
{"id": 39, "business_name": "Future Star Net", "ts": 1200809757, "lat": 39.99216, "lon": 116.7717, "status": 1}
{"id": 40, "business_name": "Provider Bell", "ts": 1201028662, "lat": 39.99732, "lon": 116.46923, "status": 0}
{"id": 41, "business_name": "Hill Signal Digital", "ts": 1200044422, "lat": 39.79099, "lon": 116.22413, "status": 2}
{"id": 42, "business_name": "Virtual Frontier Medicine", "ts": 1200391855, "lat": 39.70759, "lon": 116.78681, "status": 2}
{"id": 43, "business_name": "Interactive Source Direct", "ts": 1199177945, "lat": 39.80343, "lon": 116.71622, "status": 1}
{"id": 44, "business_name": "Max Data", "ts": 1200606472, "lat": 40.073, "lon": 116.47938, "status": 4}
{"id": 45, "business_name": "Telecom Analysis Innovation", "ts": 1199455963, "lat": 39.96186, "lon": 116.43696, "status": 3}
{"id": 46, "business_name": "Future Omega Software", "ts": 1200110099, "lat": 39.77153, "lon": 116.36634, "status": 0}
{"id": 47, "business_name": "Future Hardware Building", "ts": 1200429721, "lat": 39.89262, "lon": 116.55875, "status": 3}
{"id": 48, "business_name": "Star Future Frontier", "ts": 1201460756, "lat": 39.98471, "lon": 116.13402, "status": 2}
{"id": 49, "business_name": "Analysis Venture Digital", "ts": 1199718197, "lat": 39.94727, "lon": 116.62387, "status": 2}
{"id": 50, "business_name": "Star Software Application", "ts": 1201286784, "lat": 39.82419, "lon": 116.30086, "status": 0}
{"id": 51, "business_name": "Atlantic Design Electronic", "ts": 1200324355, "lat": 39.8358, "lon": 116.1048, "status": 1}
{"id": 52, "business_name": "Analysis Omega", "ts": 1201203628, "lat": 40.01299, "lon": 116.11523, "status": 4}
{"id": 53, "business_name": "Signal Star Application", "ts": 1199786685, "lat": 40.06298, "lon": 116.18181, "status": 0}
{"id": 54, "business_name": "Hardware North", "ts": 1201450778, "lat": 40.0066, "lon": 116.18589, "status": 1}
{"id": 55, "business_name": "Resource Omega Net", "ts": 1200317677, "lat": 39.8043, "lon": 116.5088, "status": 4}
{"id": 56, "business_name": "Frontier Vision Construction", "ts": 1199245529, "lat": 39.84245, "lon": 116.51927, "status": 4}
{"id": 57, "business_name": "Graphics Advanced Architecture", "ts": 1200793718, "lat": 40.04343, "lon": 116.87023, "status": 4}
{"id": 58, "business_name": "Medicine Vision General", "ts": 1200782438, "lat": 40.05751, "lon": 116.68672, "status": 3}
{"id": 59, "business_name": "Source Omega General", "ts": 1200296741, "lat": 40.01461, "lon": 116.8712, "status": 1}
{"id": 60, "business_name": "Virtual Software East", "ts": 1199770872, "lat": 40.02217, "lon": 116.64496, "status": 3}
{"id": 61, "business_name": "South Vision Star", "ts": 1201735877, "lat": 39.71896, "lon": 116.18421, "status": 1}
{"id": 62, "business_name": "Source Internet", "ts": 1200206247, "lat": 39.794, "lon": 116.17697, "status": 4}
{"id": 63, "business_name": "Interactive Telecom", "ts": 1200977157, "lat": 39.77688, "lon": 116.86601, "status": 1}
{"id": 64, "business_name": "Net Pacific Source", "ts": 1201527485, "lat": 39.84143, "lon": 116.71836, "status": 1}
{"id": 65, "business_name": "Resource Speed Source", "ts": 1200255404, "lat": 39.89881, "lon": 116.83357, "status": 0}
{"id": 66, "business_name": "Atlantic Star Research", "ts": 1201864710, "lat": 39.77602, "lon": 116.72013, "status": 3}
{"id": 67, "business_name": "People Data", "ts": 1201155227, "lat": 40.06327, "lon": 116.12745, "status": 4}
{"id": 68, "business_name": "Hardware Application Research", "ts": 1199332949, "lat": 39.80474, "lon": 116.20457, "status": 1}
{"id": 69, "business_name": "Source Contract", "ts": 1201537895, "lat": 39.71755, "lon": 116.20466, "status": 2}
{"id": 70, "business_name": "Network Electronic Analysis", "ts": 1199647563, "lat": 39.72578, "lon": 116.81485, "status": 2}
{"id": 71, "business_name": "Solutions Vision Research", "ts": 1200688379, "lat": 39.76089, "lon": 116.19262, "status": 1}
{"id": 72, "business_name": "Hill Provider", "ts": 1200987060, "lat": 39.83163, "lon": 116.64542, "status": 2}
{"id": 73, "business_name": "Resource Contract Venture", "ts": 1201226868, "lat": 39.75376, "lon": 116.54566, "status": 2}
{"id": 74, "business_name": "Bell Systems East", "ts": 1199278281, "lat": 39.99825, "lon": 116.61256, "status": 2}
{"id": 75, "business_name": "North Electronic Advanced", "ts": 1201017896, "lat": 39.96084, "lon": 116.63146, "status": 1}
{"id": 76, "business_name": "Consulting Industries Direct", "ts": 1199799714, "lat": 40.05074, "lon": 116.60082, "status": 1}
{"id": 77, "business_name": "Electronic Electronics Vision", "ts": 1200247163, "lat": 40.05883, "lon": 116.56198, "status": 2}
{"id": 78, "business_name": "Pacific Resource", "ts": 1199264210, "lat": 39.86576, "lon": 116.88548, "status": 1}
{"id": 79, "business_name": "Application East Vision", "ts": 1201341482, "lat": 39.87485, "lon": 116.75574, "status": 1}
{"id": 80, "business_name": "Atlantic Omega Interactive", "ts": 1200652738, "lat": 39.80632, "lon": 116.19469, "status": 0}
{"id": 81, "business_name": "Omega Software Electronic", "ts": 1201548407, "lat": 39.74673, "lon": 116.11592, "status": 2}
{"id": 82, "business_name": "Analysis Atlantic Pacific", "ts": 1201970350, "lat": 39.737, "lon": 116.84991, "status": 4}
{"id": 83, "business_name": "Electronic Alpha Systems", "ts": 1201565510, "lat": 39.858, "lon": 116.50609, "status": 1}
{"id": 84, "business_name": "Electronics Star", "ts": 1199703798, "lat": 39.70157, "lon": 116.65798, "status": 1}
{"id": 85, "business_name": "Universal Software Electronics", "ts": 1199249074, "lat": 39.73014, "lon": 116.46619, "status": 0}
{"id": 86, "business_name": "Hardware Venture Virtual", "ts": 1201021900, "lat": 40.00171, "lon": 116.68739, "status": 0}
{"id": 87, "business_name": "Vision Studio Pacific", "ts": 1201731507, "lat": 40.05782, "lon": 116.26934, "status": 4}
{"id": 88, "business_name": "Provider Design Future", "ts": 1201297150, "lat": 39.96071, "lon": 116.25318, "status": 2}
{"id": 89, "business_name": "Vision Consulting Software", "ts": 1199224580, "lat": 39.96986, "lon": 116.12012, "status": 4}
{"id": 90, "business_name": "Digital Contract", "ts": 1201405343, "lat": 39.71266, "lon": 116.65177, "status": 3}
{"id": 91, "business_name": "Universal Digital Provider", "ts": 1199946855, "lat": 39.88144, "lon": 116.89282, "status": 3}
{"id": 92, "business_name": "Consulting West Adventure", "ts": 1200045327, "lat": 39.94212, "lon": 116.74396, "status": 2}
{"id": 93, "business_name": "Contract Digital Star", "ts": 1199752334, "lat": 39.99066, "lon": 116.52861, "status": 2}
{"id": 94, "business_name": "Adventure Interactive", "ts": 1201886768, "lat": 40.04103, "lon": 116.71021, "status": 3}
{"id": 95, "business_name": "Atlantic Solutions", "ts": 1201132504, "lat": 39.73232, "lon": 116.22509, "status": 2}
{"id": 96, "business_name": "Pacific Advanced Internet", "ts": 1199624409, "lat": 40.09953, "lon": 116.37637, "status": 4}
{"id": 97, "business_name": "Future Alpha", "ts": 1200427272, "lat": 39.98027, "lon": 116.17109, "status": 3}
{"id": 98, "business_name": "Star Venture Contract", "ts": 1199870649, "lat": 39.85425, "lon": 116.31993, "status": 0}
{"id": 99, "business_name": "Universal Resource", "ts": 1199391969, "lat": 39.99306, "lon": 116.22723, "status": 0}
{"id": 100, "business_name": "Interactive Consulting", "ts": 1201424835, "lat": 39.87546, "lon": 116.49681, "status": 3}
{"id": 101, "business_name": "Source Digital Universal", "ts": 1200746774, "lat": 39.71167, "lon": 116.53016, "status": 4}
{"id": 102, "business_name": "Future Atlantic Architecture", "ts": 1200219103, "lat": 40.0004, "lon": 116.83839, "status": 4}
{"id": 103, "business_name": "Building Network Star", "ts": 1200495902, "lat": 39.88673, "lon": 116.2829, "status": 4}
{"id": 104, "business_name": "Direct Venture", "ts": 1201316443, "lat": 39.77142, "lon": 116.8558, "status": 0}
{"id": 105, "business_name": "Medicine Vision Electronics", "ts": 1199288153, "lat": 39.90324, "lon": 116.88233, "status": 1}
{"id": 106, "business_name": "Direct Signal Pacific", "ts": 1201293452, "lat": 39.76132, "lon": 116.65256, "status": 3}
{"id": 107, "business_name": "Resource Atlantic Virtual", "ts": 1200546778, "lat": 39.93576, "lon": 116.24878, "status": 1}
{"id": 108, "business_name": "Solutions Atlantic", "ts": 1200644645, "lat": 39.87883, "lon": 116.69693, "status": 1}
{"id": 109, "business_name": "Application Innovation Alpha", "ts": 1200775402, "lat": 39.82618, "lon": 116.41026, "status": 3}
{"id": 110, "business_name": "Software Vision Contract", "ts": 1201225139, "lat": 39.79612, "lon": 116.27883, "status": 2}
{"id": 111, "business_name": "Star Architecture Electronic", "ts": 1201499648, "lat": 39.99763, "lon": 116.32546, "status": 1}
{"id": 112, "business_name": "Vision Application East", "ts": 1201950623, "lat": 39.88199, "lon": 116.70393, "status": 3}
{"id": 113, "business_name": "Vision Universal", "ts": 1200445473, "lat": 39.73375, "lon": 116.72538, "status": 1}
{"id": 114, "business_name": "Solutions Digital Building", "ts": 1201498103, "lat": 39.95157, "lon": 116.70606, "status": 0}
{"id": 115, "business_name": "Studio South Architecture", "ts": 1201859415, "lat": 40.0538, "lon": 116.67365, "status": 3}
{"id": 116, "business_name": "West Systems", "ts": 1201432732, "lat": 40.08288, "lon": 116.4317, "status": 0}
{"id": 117, "business_name": "Digital General", "ts": 1200700541, "lat": 40.07894, "lon": 116.41412, "status": 0}
{"id": 118, "business_name": "Solutions Hardware", "ts": 1199284315, "lat": 39.92727, "lon": 116.6401, "status": 3}
{"id": 119, "business_name": "Galaxy West Research", "ts": 1199896624, "lat": 40.0485, "lon": 116.42582, "status": 4}
{"id": 120, "business_name": "Electronics East Building", "ts": 1199536110, "lat": 39.86227, "lon": 116.44085, "status": 0}
{"id": 121, "business_name": "Building Hardware Provider", "ts": 1201641747, "lat": 40.05422, "lon": 116.20718, "status": 3}
{"id": 122, "business_name": "Star Universal Advanced", "ts": 1199691032, "lat": 39.78734, "lon": 116.27843, "status": 1}
{"id": 123, "business_name": "Source Provider Advanced", "ts": 1200746764, "lat": 39.77287, "lon": 116.33178, "status": 4}
{"id": 124, "business_name": "Architecture Hill Alpha", "ts": 1201895893, "lat": 39.93607, "lon": 116.62133, "status": 4}
{"id": 125, "business_name": "Contract Application", "ts": 1199704682, "lat": 39.77918, "lon": 116.88626, "status": 0}
{"id": 126, "business_name": "Pacific North Systems", "ts": 1200127304, "lat": 39.89814, "lon": 116.69144, "status": 3}
{"id": 127, "business_name": "Solutions Direct", "ts": 1201518742, "lat": 40.03787, "lon": 116.56986, "status": 0}
{"id": 128, "business_name": "Federated Analysis Design", "ts": 1199800593, "lat": 39.96795, "lon": 116.65727, "status": 0}
{"id": 129, "business_name": "Star Net Advanced", "ts": 1201024115, "lat": 40.03968, "lon": 116.24838, "status": 2}
{"id": 130, "business_name": "Vision Pacific Software", "ts": 1200979665, "lat": 39.85192, "lon": 116.25869, "status": 1}
{"id": 131, "business_name": "Hill Alpha", "ts": 1201127919, "lat": 40.07288, "lon": 116.18141, "status": 2}
{"id": 132, "business_name": "Solutions Telecom Network", "ts": 1201058184, "lat": 40.08959, "lon": 116.53448, "status": 3}
{"id": 133, "business_name": "Star Power", "ts": 1199502622, "lat": 39.88664, "lon": 116.86539, "status": 1}
{"id": 134, "business_name": "Electronic Net Software", "ts": 1200989250, "lat": 39.94498, "lon": 116.53993, "status": 1}
{"id": 135, "business_name": "Design Building Graphics", "ts": 1199368482, "lat": 39.95183, "lon": 116.11789, "status": 2}
{"id": 136, "business_name": "People Galaxy", "ts": 1201284945, "lat": 39.84806, "lon": 116.41141, "status": 4}
{"id": 137, "business_name": "Signal Atlantic", "ts": 1199675792, "lat": 39.7121, "lon": 116.33636, "status": 0}
{"id": 138, "business_name": "Atlantic Medicine Advanced", "ts": 1201411031, "lat": 39.76266, "lon": 116.66451, "status": 0}
{"id": 139, "business_name": "Atlantic North Vision", "ts": 1199517189, "lat": 39.86117, "lon": 116.57386, "status": 1}
{"id": 140, "business_name": "Application Innovation Interactive", "ts": 1199544489, "lat": 40.05865, "lon": 116.29395, "status": 1}
{"id": 141, "business_name": "Construction Contract Data", "ts": 1199518454, "lat": 39.74114, "lon": 116.74559, "status": 4}
{"id": 142, "business_name": "Speed Studio", "ts": 1200846251, "lat": 40.00278, "lon": 116.59452, "status": 0}
{"id": 143, "business_name": "Net Application Electronic", "ts": 1199715638, "lat": 39.81368, "lon": 116.32335, "status": 0}
{"id": 144, "business_name": "Architecture Signal Vision", "ts": 1201803578, "lat": 40.01413, "lon": 116.1352, "status": 1}
{"id": 145, "business_name": "Solutions Provider Power", "ts": 1200072684, "lat": 39.97056, "lon": 116.83143, "status": 1}
{"id": 146, "business_name": "Design Federated Advanced", "ts": 1199840137, "lat": 39.88312, "lon": 116.83174, "status": 0}
{"id": 147, "business_name": "Vision Telecom Hardware", "ts": 1200153209, "lat": 40.04467, "lon": 116.12249, "status": 0}
{"id": 148, "business_name": "Vision Star", "ts": 1201197703, "lat": 39.94141, "lon": 116.62763, "status": 3}
{"id": 149, "business_name": "Data Galaxy Architecture", "ts": 1200403400, "lat": 39.80956, "lon": 116.59964, "status": 4}
{"id": 150, "business_name": "Vision Software Alpha", "ts": 1200675572, "lat": 40.0577, "lon": 116.39731, "status": 2}
{"id": 151, "business_name": "Innovation Atlantic", "ts": 1201162550, "lat": 40.09477, "lon": 116.70403, "status": 4}
{"id": 152, "business_name": "Building Industries Alpha", "ts": 1201403614, "lat": 39.73594, "lon": 116.58914, "status": 4}
{"id": 153, "business_name": "Building Star", "ts": 1201695757, "lat": 39.91191, "lon": 116.88042, "status": 1}
{"id": 154, "business_name": "People Software Contract", "ts": 1199303769, "lat": 39.8088, "lon": 116.8927, "status": 1}
{"id": 155, "business_name": "West North Venture", "ts": 1201314991, "lat": 39.97848, "lon": 116.22059, "status": 2}
{"id": 156, "business_name": "Pacific Universal", "ts": 1200120077, "lat": 39.89662, "lon": 116.37988, "status": 4}
{"id": 157, "business_name": "Solutions Electronic", "ts": 1199659615, "lat": 39.70733, "lon": 116.8567, "status": 3}
{"id": 158, "business_name": "Star Electronic Resource", "ts": 1199484910, "lat": 39.85605, "lon": 116.45141, "status": 3}
{"id": 159, "business_name": "Construction Federated Resource", "ts": 1199513247, "lat": 40.05736, "lon": 116.87261, "status": 1}
{"id": 160, "business_name": "Building Contract Direct", "ts": 1200500515, "lat": 39.70218, "lon": 116.7941, "status": 2}
{"id": 161, "business_name": "Bell Direct", "ts": 1200988084, "lat": 39.85536, "lon": 116.39401, "status": 3}
{"id": 162, "business_name": "Power Construction Electronics", "ts": 1200405886, "lat": 39.76552, "lon": 116.59662, "status": 3}
{"id": 163, "business_name": "West Electronics Federated", "ts": 1201114424, "lat": 39.98956, "lon": 116.2399, "status": 4}
{"id": 164, "business_name": "Star Data East", "ts": 1201519871, "lat": 40.03059, "lon": 116.71769, "status": 0}
{"id": 165, "business_name": "Frontier South Galaxy", "ts": 1200465660, "lat": 39.82137, "lon": 116.61975, "status": 1}
{"id": 166, "business_name": "Medicine Bell Advanced", "ts": 1201177469, "lat": 39.90742, "lon": 116.59814, "status": 3}
{"id": 167, "business_name": "Max Signal Universal", "ts": 1201503333, "lat": 39.72752, "lon": 116.31188, "status": 4}
{"id": 168, "business_name": "South Provider", "ts": 1201010096, "lat": 39.86202, "lon": 116.71684, "status": 0}
{"id": 169, "business_name": "Frontier Graphics Pacific", "ts": 1200865481, "lat": 40.06062, "lon": 116.34688, "status": 1}
{"id": 170, "business_name": "Construction Digital", "ts": 1199447313, "lat": 39.73176, "lon": 116.75996, "status": 0}
{"id": 171, "business_name": "Construction Innovation Systems", "ts": 1201304017, "lat": 39.90031, "lon": 116.38541, "status": 3}
{"id": 172, "business_name": "Studio Hardware Contract", "ts": 1200268235, "lat": 39.97675, "lon": 116.35888, "status": 3}
{"id": 173, "business_name": "Universal Direct Contract", "ts": 1199419526, "lat": 39.95301, "lon": 116.65576, "status": 3}
{"id": 174, "business_name": "Virtual Advanced Network", "ts": 1199839554, "lat": 39.76824, "lon": 116.20131, "status": 2}
{"id": 175, "business_name": "Research Signal Graphics", "ts": 1200271098, "lat": 39.7995, "lon": 116.5864, "status": 0}
{"id": 176, "business_name": "Source Network Electronic", "ts": 1201156114, "lat": 40.06123, "lon": 116.77483, "status": 3}
{"id": 177, "business_name": "South Source Speed", "ts": 1201615411, "lat": 39.79208, "lon": 116.69563, "status": 2}
{"id": 178, "business_name": "Star Direct Systems", "ts": 1199905972, "lat": 39.76786, "lon": 116.77141, "status": 2}
{"id": 179, "business_name": "Alpha Construction", "ts": 1199796174, "lat": 40.05717, "lon": 116.37651, "status": 0}
{"id": 180, "business_name": "Bell Telecom", "ts": 1201634969, "lat": 39.99864, "lon": 116.3249, "status": 1}
{"id": 181, "business_name": "Star South Adventure", "ts": 1201489639, "lat": 39.7363, "lon": 116.39384, "status": 0}
{"id": 182, "business_name": "Medicine Architecture Star", "ts": 1200900505, "lat": 40.06903, "lon": 116.86173, "status": 0}
{"id": 183, "business_name": "Solutions Hardware", "ts": 1201259737, "lat": 39.80003, "lon": 116.21904, "status": 2}
{"id": 184, "business_name": "Power Omega Industries", "ts": 1201623684, "lat": 39.73802, "lon": 116.19993, "status": 1}
{"id": 185, "business_name": "South Network Federated", "ts": 1200555161, "lat": 40.0052, "lon": 116.6796, "status": 1}
{"id": 186, "business_name": "Solutions Technology Adventure", "ts": 1200928067, "lat": 39.94303, "lon": 116.50853, "status": 4}
{"id": 187, "business_name": "Pacific East Provider", "ts": 1199991295, "lat": 39.85823, "lon": 116.76734, "status": 4}
{"id": 188, "business_name": "Contract Universal Venture", "ts": 1201866986, "lat": 40.08384, "lon": 116.62691, "status": 0}
{"id": 189, "business_name": "Vision Interactive Medicine", "ts": 1201764932, "lat": 39.86996, "lon": 116.22912, "status": 0}
{"id": 190, "business_name": "Adventure Network", "ts": 1201688288, "lat": 39.87025, "lon": 116.64518, "status": 2}
{"id": 191, "business_name": "People Max Medicine", "ts": 1199461159, "lat": 39.93788, "lon": 116.81512, "status": 2}
{"id": 192, "business_name": "Star Max Vision", "ts": 1199770936, "lat": 39.91579, "lon": 116.65748, "status": 0}
{"id": 193, "business_name": "Innovation Hardware People", "ts": 1201563752, "lat": 39.97703, "lon": 116.78817, "status": 1}
{"id": 194, "business_name": "Network Atlantic Industries", "ts": 1201538801, "lat": 39.70275, "lon": 116.37203, "status": 2}
{"id": 195, "business_name": "Source Graphics", "ts": 1199681048, "lat": 39.70984, "lon": 116.86253, "status": 3}
{"id": 196, "business_name": "Analysis Internet", "ts": 1201140723, "lat": 39.75847, "lon": 116.54053, "status": 4}
{"id": 197, "business_name": "Galaxy Bell Star", "ts": 1201949869, "lat": 40.06068, "lon": 116.71168, "status": 1}
{"id": 198, "business_name": "General Federated Resource", "ts": 1200473034, "lat": 39.75957, "lon": 116.34415, "status": 3}
{"id": 199, "business_name": "Advanced Solutions", "ts": 1199195715, "lat": 39.86279, "lon": 116.83726, "status": 2}
{"id": 200, "business_name": "Universal Star Design", "ts": 1199972206, "lat": 40.0648, "lon": 116.23886, "status": 0}
{"id": 201, "business_name": "South Digital Systems", "ts": 1201781440, "lat": 39.71991, "lon": 116.56908, "status": 1}
{"id": 202, "business_name": "People Building Advanced", "ts": 1201717246, "lat": 40.04912, "lon": 116.55244, "status": 1}
{"id": 203, "business_name": "Future Atlantic Source", "ts": 1199964743, "lat": 39.93111, "lon": 116.35279, "status": 0}
{"id": 204, "business_name": "Interactive South", "ts": 1200633985, "lat": 39.96771, "lon": 116.6149, "status": 4}
{"id": 205, "business_name": "Vision Star Net", "ts": 1200576881, "lat": 39.96808, "lon": 116.72922, "status": 0}
{"id": 206, "business_name": "Medicine Pacific West", "ts": 1200804852, "lat": 39.84094, "lon": 116.56486, "status": 1}
{"id": 207, "business_name": "Application Innovation", "ts": 1201884360, "lat": 39.8585, "lon": 116.73171, "status": 0}
{"id": 208, "business_name": "Future Software Alpha", "ts": 1200845800, "lat": 39.8794, "lon": 116.63283, "status": 3}
{"id": 209, "business_name": "Star Virtual Interactive", "ts": 1200971033, "lat": 40.02694, "lon": 116.33996, "status": 1}
{"id": 210, "business_name": "Analysis Data Medicine", "ts": 1201457615, "lat": 39.90483, "lon": 116.83921, "status": 4}
{"id": 211, "business_name": "Network Studio Systems", "ts": 1199642349, "lat": 40.0919, "lon": 116.51084, "status": 3}
{"id": 212, "business_name": "Consulting Universal", "ts": 1201747636, "lat": 40.06329, "lon": 116.39204, "status": 2}
{"id": 213, "business_name": "Signal East Direct", "ts": 1201146974, "lat": 39.79889, "lon": 116.23247, "status": 2}
{"id": 214, "business_name": "General Frontier", "ts": 1199227287, "lat": 39.81189, "lon": 116.82403, "status": 4}
{"id": 215, "business_name": "Adventure Universal", "ts": 1200692165, "lat": 39.75056, "lon": 116.18545, "status": 1}
{"id": 216, "business_name": "Max Electronics People", "ts": 1200953771, "lat": 39.80702, "lon": 116.78852, "status": 3}
{"id": 217, "business_name": "Internet Advanced Architecture", "ts": 1201077889, "lat": 40.04369, "lon": 116.40219, "status": 4}
{"id": 218, "business_name": "Network Solutions Virtual", "ts": 1199373202, "lat": 39.73611, "lon": 116.62281, "status": 3}
{"id": 219, "business_name": "Direct Signal Pacific", "ts": 1201254192, "lat": 39.8367, "lon": 116.22314, "status": 3}
{"id": 220, "business_name": "Vision Bell Network", "ts": 1199907680, "lat": 40.03528, "lon": 116.12571, "status": 2}
{"id": 221, "business_name": "Galaxy Internet Solutions", "ts": 1200606203, "lat": 39.73948, "lon": 116.66284, "status": 2}
{"id": 222, "business_name": "Architecture Technology Federated", "ts": 1199302048, "lat": 39.78118, "lon": 116.32072, "status": 0}
{"id": 223, "business_name": "Universal Venture Research", "ts": 1200206260, "lat": 39.7972, "lon": 116.61346, "status": 4}
{"id": 224, "business_name": "Building Resource", "ts": 1199710389, "lat": 39.74616, "lon": 116.70433, "status": 0}
{"id": 225, "business_name": "Application Star East", "ts": 1201229604, "lat": 39.8539, "lon": 116.67643, "status": 4}
{"id": 226, "business_name": "Design Technology", "ts": 1200669742, "lat": 39.93252, "lon": 116.7314, "status": 1}
{"id": 227, "business_name": "Star Application Technology", "ts": 1201866284, "lat": 40.08185, "lon": 116.61243, "status": 2}
{"id": 228, "business_name": "East North Adventure", "ts": 1200565568, "lat": 39.76311, "lon": 116.27109, "status": 3}
{"id": 229, "business_name": "Hardware Innovation Hill", "ts": 1200453457, "lat": 39.9709, "lon": 116.31907, "status": 3}
{"id": 230, "business_name": "Federated Direct", "ts": 1199525269, "lat": 39.71368, "lon": 116.7649, "status": 2}
{"id": 231, "business_name": "Star South General", "ts": 1199979165, "lat": 39.85364, "lon": 116.14311, "status": 4}
{"id": 232, "business_name": "Source Telecom", "ts": 1201151666, "lat": 39.7353, "lon": 116.73587, "status": 2}
{"id": 233, "business_name": "Application Pacific Architecture", "ts": 1199505315, "lat": 39.9909, "lon": 116.72948, "status": 3}
{"id": 234, "business_name": "Net Internet General", "ts": 1200330410, "lat": 39.96001, "lon": 116.22401, "status": 3}
{"id": 235, "business_name": "Future Innovation Bell", "ts": 1199200346, "lat": 39.95282, "lon": 116.7122, "status": 1}
{"id": 236, "business_name": "Electronic Innovation Electronics", "ts": 1199783469, "lat": 39.87238, "lon": 116.30704, "status": 0}
{"id": 237, "business_name": "Telecom Technology Max", "ts": 1201977246, "lat": 40.09306, "lon": 116.42457, "status": 3}
{"id": 238, "business_name": "Future Systems", "ts": 1201114871, "lat": 40.00164, "lon": 116.77483, "status": 4}
{"id": 239, "business_name": "Advanced Interactive", "ts": 1199699420, "lat": 39.78724, "lon": 116.46255, "status": 4}
{"id": 240, "business_name": "Technology Analysis", "ts": 1200921104, "lat": 39.88995, "lon": 116.22579, "status": 0}
{"id": 241, "business_name": "Solutions General Digital", "ts": 1200304772, "lat": 39.8361, "lon": 116.46926, "status": 1}
{"id": 242, "business_name": "Studio Max Electronics", "ts": 1201729604, "lat": 39.99573, "lon": 116.52961, "status": 0}
{"id": 243, "business_name": "Frontier Omega Pacific", "ts": 1200516113, "lat": 40.03151, "lon": 116.63671, "status": 4}
{"id": 244, "business_name": "Graphics Venture Architecture", "ts": 1200613012, "lat": 39.75884, "lon": 116.21936, "status": 0}
{"id": 245, "business_name": "Electronics East", "ts": 1200980841, "lat": 39.79145, "lon": 116.30076, "status": 0}
{"id": 246, "business_name": "Source Hill Graphics", "ts": 1200226099, "lat": 40.02279, "lon": 116.73309, "status": 0}
{"id": 247, "business_name": "Advanced Data Network", "ts": 1201902219, "lat": 40.03907, "lon": 116.74402, "status": 0}
{"id": 248, "business_name": "Universal General Resource", "ts": 1200773647, "lat": 39.88513, "lon": 116.77397, "status": 2}
{"id": 249, "business_name": "Federated Venture", "ts": 1201284335, "lat": 39.914, "lon": 116.49992, "status": 3}
{"id": 250, "business_name": "Virtual Federated Building", "ts": 1200836293, "lat": 40.03724, "lon": 116.8774, "status": 1}
{"id": 251, "business_name": "Galaxy Signal", "ts": 1200509290, "lat": 39.84412, "lon": 116.74981, "status": 1}
{"id": 252, "business_name": "General West Innovation", "ts": 1201421787, "lat": 39.863, "lon": 116.29782, "status": 3}
{"id": 253, "business_name": "Net Solutions North", "ts": 1200933105, "lat": 39.91384, "lon": 116.88172, "status": 4}
{"id": 254, "business_name": "Electronics Graphics Network", "ts": 1200606163, "lat": 40.09002, "lon": 116.25072, "status": 1}
{"id": 255, "business_name": "Graphics Electronic Hardware", "ts": 1200697981, "lat": 39.93903, "lon": 116.43978, "status": 3}
{"id": 256, "business_name": "West Industries Bell", "ts": 1200107886, "lat": 39.92887, "lon": 116.82612, "status": 0}
{"id": 257, "business_name": "Digital Frontier Construction", "ts": 1199190695, "lat": 39.82644, "lon": 116.87325, "status": 3}
{"id": 258, "business_name": "Vision Software Digital", "ts": 1201513565, "lat": 39.75534, "lon": 116.67881, "status": 1}
{"id": 259, "business_name": "Analysis Internet", "ts": 1199609853, "lat": 39.94808, "lon": 116.75399, "status": 2}
{"id": 260, "business_name": "Interactive Architecture Vision", "ts": 1200642717, "lat": 39.90657, "lon": 116.14753, "status": 3}
{"id": 261, "business_name": "Power Advanced", "ts": 1201492389, "lat": 40.05881, "lon": 116.44916, "status": 4}
{"id": 262, "business_name": "Bell Direct", "ts": 1199431851, "lat": 40.02103, "lon": 116.89603, "status": 2}
{"id": 263, "business_name": "Net Vision Application", "ts": 1199509248, "lat": 39.90378, "lon": 116.73463, "status": 0}
{"id": 264, "business_name": "People Atlantic", "ts": 1201551430, "lat": 39.7157, "lon": 116.64694, "status": 0}
{"id": 265, "business_name": "Future South Analysis", "ts": 1201792122, "lat": 39.892, "lon": 116.19901, "status": 4}
{"id": 266, "business_name": "Studio Direct Studio", "ts": 1199514678, "lat": 39.7531, "lon": 116.82054, "status": 4}
{"id": 267, "business_name": "Industries Power", "ts": 1200410409, "lat": 40.05338, "lon": 116.75401, "status": 2}
{"id": 268, "business_name": "Electronics Venture Alpha", "ts": 1201169605, "lat": 39.98721, "lon": 116.65696, "status": 1}
{"id": 269, "business_name": "Consulting Signal", "ts": 1201247443, "lat": 39.80294, "lon": 116.48191, "status": 1}
{"id": 270, "business_name": "North Building", "ts": 1201198771, "lat": 39.95565, "lon": 116.72795, "status": 2}
{"id": 271, "business_name": "Building Systems Galaxy", "ts": 1199682688, "lat": 39.90981, "lon": 116.29397, "status": 3}
{"id": 272, "business_name": "Innovation Solutions Interactive", "ts": 1200171075, "lat": 39.71234, "lon": 116.88038, "status": 0}
{"id": 273, "business_name": "Net Pacific Internet", "ts": 1199981727, "lat": 39.77831, "lon": 116.61543, "status": 0}
{"id": 274, "business_name": "Galaxy Adventure Power", "ts": 1201719473, "lat": 40.047, "lon": 116.42746, "status": 3}
{"id": 275, "business_name": "Telecom Solutions Application", "ts": 1200726436, "lat": 39.8177, "lon": 116.56464, "status": 0}
{"id": 276, "business_name": "People Hardware Design", "ts": 1199989548, "lat": 39.89322, "lon": 116.88421, "status": 1}
{"id": 277, "business_name": "Architecture Atlantic Technology", "ts": 1201347028, "lat": 40.03115, "lon": 116.61455, "status": 1}
{"id": 278, "business_name": "Venture Pacific Universal", "ts": 1199709815, "lat": 39.99091, "lon": 116.61853, "status": 0}
{"id": 279, "business_name": "General Software", "ts": 1201496587, "lat": 39.81162, "lon": 116.71722, "status": 2}
{"id": 280, "business_name": "Graphics Pacific", "ts": 1199876318, "lat": 39.94524, "lon": 116.86604, "status": 4}
{"id": 281, "business_name": "Building Contract Innovation", "ts": 1201313608, "lat": 39.94824, "lon": 116.64578, "status": 2}
{"id": 282, "business_name": "Software Pacific", "ts": 1200488514, "lat": 40.06631, "lon": 116.42599, "status": 0}
{"id": 283, "business_name": "Data Hardware Bell", "ts": 1199746512, "lat": 39.93111, "lon": 116.3287, "status": 4}
{"id": 284, "business_name": "Pacific Telecom Vision", "ts": 1199509250, "lat": 39.81462, "lon": 116.76865, "status": 1}
{"id": 285, "business_name": "Net Medicine", "ts": 1201481556, "lat": 39.82601, "lon": 116.31203, "status": 1}
{"id": 286, "business_name": "Application Internet", "ts": 1201876681, "lat": 39.96223, "lon": 116.17531, "status": 0}
{"id": 287, "business_name": "Systems Graphics Contract", "ts": 1199662862, "lat": 39.73838, "lon": 116.14783, "status": 1}
{"id": 288, "business_name": "Future Graphics", "ts": 1201207363, "lat": 40.01239, "lon": 116.54505, "status": 4}
{"id": 289, "business_name": "North Hill Venture", "ts": 1200107914, "lat": 39.72243, "lon": 116.46906, "status": 1}
{"id": 290, "business_name": "Speed Vision Venture", "ts": 1200042988, "lat": 39.77792, "lon": 116.30008, "status": 3}
{"id": 291, "business_name": "Data Pacific Power", "ts": 1200076451, "lat": 40.03616, "lon": 116.28394, "status": 0}
{"id": 292, "business_name": "Technology Construction", "ts": 1200397600, "lat": 40.02942, "lon": 116.63942, "status": 1}
{"id": 293, "business_name": "Data Hardware Systems", "ts": 1201378037, "lat": 39.81993, "lon": 116.79623, "status": 0}
{"id": 294, "business_name": "Hardware Provider", "ts": 1201459426, "lat": 39.72312, "lon": 116.29228, "status": 3}
{"id": 295, "business_name": "Star Software Consulting", "ts": 1200854526, "lat": 40.0537, "lon": 116.33674, "status": 3}
{"id": 296, "business_name": "Resource Power Data", "ts": 1200992473, "lat": 39.95405, "lon": 116.75335, "status": 1}
{"id": 297, "business_name": "Power Atlantic", "ts": 1201008335, "lat": 39.81983, "lon": 116.71696, "status": 3}
{"id": 298, "business_name": "Virtual Software Digital", "ts": 1200119549, "lat": 39.83806, "lon": 116.48289, "status": 1}
{"id": 299, "business_name": "South Max Net", "ts": 1200177820, "lat": 39.73808, "lon": 116.31373, "status": 3}
{"id": 300, "business_name": "Medicine Electronic", "ts": 1201723094, "lat": 39.91772, "lon": 116.83253, "status": 4}
{"id": 301, "business_name": "Building Adventure", "ts": 1201450822, "lat": 40.06291, "lon": 116.17242, "status": 4}
{"id": 302, "business_name": "Venture Design Software", "ts": 1201505462, "lat": 39.99404, "lon": 116.26799, "status": 3}
{"id": 303, "business_name": "Electronics Solutions", "ts": 1199724678, "lat": 39.7045, "lon": 116.79721, "status": 1}
{"id": 304, "business_name": "Research Alpha", "ts": 1201608868, "lat": 39.79472, "lon": 116.60295, "status": 0}
{"id": 305, "business_name": "Software Omega Medicine", "ts": 1201620988, "lat": 39.94617, "lon": 116.50059, "status": 4}
{"id": 306, "business_name": "Construction Graphics Omega", "ts": 1201861717, "lat": 39.97877, "lon": 116.64098, "status": 4}
{"id": 307, "business_name": "Research Signal Frontier", "ts": 1201066118, "lat": 39.89772, "lon": 116.43152, "status": 1}
{"id": 308, "business_name": "Solutions Source Architecture", "ts": 1199364224, "lat": 39.84569, "lon": 116.20763, "status": 1}
{"id": 309, "business_name": "Star Architecture Contract", "ts": 1200809879, "lat": 39.85723, "lon": 116.86922, "status": 0}
{"id": 310, "business_name": "Studio Atlantic", "ts": 1200030642, "lat": 39.90391, "lon": 116.72323, "status": 1}
{"id": 311, "business_name": "Signal Virtual Software", "ts": 1199711777, "lat": 39.72699, "lon": 116.24951, "status": 2}
{"id": 312, "business_name": "Medicine Advanced Architecture", "ts": 1200119392, "lat": 39.76381, "lon": 116.48391, "status": 4}
{"id": 313, "business_name": "Research Telecom Galaxy", "ts": 1200098889, "lat": 40.03646, "lon": 116.88633, "status": 2}
{"id": 314, "business_name": "Interactive Universal", "ts": 1199829292, "lat": 39.86465, "lon": 116.47522, "status": 0}
{"id": 315, "business_name": "Consulting People Studio", "ts": 1200119064, "lat": 39.995, "lon": 116.3571, "status": 1}
{"id": 316, "business_name": "Studio Star Graphics", "ts": 1199983502, "lat": 39.7053, "lon": 116.3339, "status": 3}
{"id": 317, "business_name": "Frontier West Technology", "ts": 1200493007, "lat": 39.97952, "lon": 116.29536, "status": 0}
{"id": 318, "business_name": "Speed Construction West", "ts": 1200026268, "lat": 39.83959, "lon": 116.32176, "status": 1}
{"id": 319, "business_name": "Internet Data", "ts": 1201325981, "lat": 39.72678, "lon": 116.62184, "status": 1}
{"id": 320, "business_name": "Direct Alpha Galaxy", "ts": 1201164487, "lat": 39.98216, "lon": 116.8093, "status": 1}
{"id": 321, "business_name": "Electronic Atlantic Software", "ts": 1199880628, "lat": 40.00723, "lon": 116.59723, "status": 3}
{"id": 322, "business_name": "Advanced Application Venture", "ts": 1200584903, "lat": 39.75123, "lon": 116.56218, "status": 4}
{"id": 323, "business_name": "Alpha Frontier Software", "ts": 1201404020, "lat": 39.81303, "lon": 116.4181, "status": 1}
{"id": 324, "business_name": "Electronic Power Hill", "ts": 1200044656, "lat": 39.85449, "lon": 116.52664, "status": 1}
{"id": 325, "business_name": "Virtual Data Research", "ts": 1201726603, "lat": 40.00627, "lon": 116.70504, "status": 4}
{"id": 326, "business_name": "Electronic Federated Universal", "ts": 1201389679, "lat": 39.89972, "lon": 116.41898, "status": 1}
{"id": 327, "business_name": "Star Resource", "ts": 1200415443, "lat": 40.05158, "lon": 116.49767, "status": 3}
{"id": 328, "business_name": "Advanced General Resource", "ts": 1200001725, "lat": 39.74506, "lon": 116.84196, "status": 3}
{"id": 329, "business_name": "Technology Solutions", "ts": 1201597213, "lat": 39.84751, "lon": 116.42296, "status": 1}
{"id": 330, "business_name": "Frontier Source Advanced", "ts": 1200100082, "lat": 39.7529, "lon": 116.22488, "status": 3}
{"id": 331, "business_name": "Building Application", "ts": 1201353968, "lat": 39.90076, "lon": 116.20952, "status": 2}
{"id": 332, "business_name": "Internet Direct East", "ts": 1200267201, "lat": 39.92566, "lon": 116.81935, "status": 0}
{"id": 333, "business_name": "Telecom Consulting Star", "ts": 1201554409, "lat": 39.82236, "lon": 116.54396, "status": 2}
{"id": 334, "business_name": "Bell Interactive", "ts": 1201176760, "lat": 39.79503, "lon": 116.30181, "status": 2}
{"id": 335, "business_name": "Solutions Virtual Graphics", "ts": 1201769674, "lat": 39.84756, "lon": 116.25794, "status": 1}
{"id": 336, "business_name": "People Graphics", "ts": 1201631771, "lat": 39.87274, "lon": 116.13865, "status": 2}
{"id": 337, "business_name": "Studio Resource", "ts": 1201764056, "lat": 39.96847, "lon": 116.8128, "status": 4}
{"id": 338, "business_name": "Virtual Studio West", "ts": 1199616327, "lat": 39.93212, "lon": 116.37729, "status": 4}
{"id": 339, "business_name": "East Venture", "ts": 1201012070, "lat": 39.76098, "lon": 116.20297, "status": 1}
{"id": 340, "business_name": "General Speed", "ts": 1200513633, "lat": 40.01641, "lon": 116.64432, "status": 3}
{"id": 341, "business_name": "Power Digital Future", "ts": 1200855976, "lat": 39.70461, "lon": 116.43858, "status": 1}
{"id": 342, "business_name": "Direct Architecture Vision", "ts": 1200922110, "lat": 39.86598, "lon": 116.2267, "status": 2}
{"id": 343, "business_name": "Federated Telecom", "ts": 1201213755, "lat": 39.85618, "lon": 116.42267, "status": 0}
{"id": 344, "business_name": "Signal Design South", "ts": 1200329035, "lat": 39.9608, "lon": 116.83683, "status": 3}
{"id": 345, "business_name": "Design Source Net", "ts": 1199985098, "lat": 39.95149, "lon": 116.17702, "status": 2}
{"id": 346, "business_name": "Star Vision", "ts": 1199194594, "lat": 39.88541, "lon": 116.74579, "status": 4}
{"id": 347, "business_name": "Provider Net", "ts": 1201615153, "lat": 39.94441, "lon": 116.83769, "status": 0}
{"id": 348, "business_name": "Consulting Signal", "ts": 1200684641, "lat": 39.85093, "lon": 116.27982, "status": 1}
{"id": 349, "business_name": "Max Virtual", "ts": 1200577349, "lat": 39.75438, "lon": 116.74657, "status": 0}
{"id": 350, "business_name": "Advanced Adventure Analysis", "ts": 1201816337, "lat": 39.98085, "lon": 116.56581, "status": 2}
{"id": 351, "business_name": "Universal Universal", "ts": 1200787529, "lat": 40.01218, "lon": 116.86885, "status": 0}
{"id": 352, "business_name": "Application Provider", "ts": 1200073548, "lat": 39.88933, "lon": 116.83996, "status": 4}
{"id": 353, "business_name": "Hardware Innovation", "ts": 1199543350, "lat": 39.99052, "lon": 116.40492, "status": 1}
{"id": 354, "business_name": "Research West Analysis", "ts": 1201483830, "lat": 40.01217, "lon": 116.82168, "status": 0}
{"id": 355, "business_name": "Future Building Virtual", "ts": 1201620758, "lat": 39.84736, "lon": 116.44094, "status": 3}
{"id": 356, "business_name": "Signal Speed", "ts": 1201358433, "lat": 39.84195, "lon": 116.74578, "status": 0}
{"id": 357, "business_name": "Vision Network Power", "ts": 1201100826, "lat": 40.09539, "lon": 116.53537, "status": 4}
{"id": 358, "business_name": "South Solutions Electronic", "ts": 1201010415, "lat": 39.70727, "lon": 116.59903, "status": 1}
{"id": 359, "business_name": "Alpha Federated", "ts": 1199913107, "lat": 39.81943, "lon": 116.34973, "status": 2}
{"id": 360, "business_name": "Federated Net Innovation", "ts": 1201906340, "lat": 39.74888, "lon": 116.71129, "status": 1}
{"id": 361, "business_name": "Universal Adventure Innovation", "ts": 1201402795, "lat": 39.83426, "lon": 116.21662, "status": 1}
{"id": 362, "business_name": "Data Adventure South", "ts": 1199495096, "lat": 39.93178, "lon": 116.52204, "status": 2}
{"id": 363, "business_name": "Net Telecom Net", "ts": 1200845207, "lat": 39.7739, "lon": 116.48571, "status": 1}
{"id": 364, "business_name": "Research Speed", "ts": 1199683068, "lat": 40.057, "lon": 116.58394, "status": 4}
{"id": 365, "business_name": "Venture Pacific Source", "ts": 1201776202, "lat": 39.80643, "lon": 116.56998, "status": 1}
{"id": 366, "business_name": "Provider East West", "ts": 1199819984, "lat": 39.91674, "lon": 116.4885, "status": 2}
{"id": 367, "business_name": "Systems Medicine Galaxy", "ts": 1200483759, "lat": 40.0733, "lon": 116.5778, "status": 2}
{"id": 368, "business_name": "Graphics Max Pacific", "ts": 1200209906, "lat": 39.76711, "lon": 116.45027, "status": 0}
{"id": 369, "business_name": "Vision Internet People", "ts": 1199679555, "lat": 39.81175, "lon": 116.38705, "status": 2}
{"id": 370, "business_name": "Adventure Venture Building", "ts": 1201451710, "lat": 39.84941, "lon": 116.33551, "status": 0}
{"id": 371, "business_name": "Source Virtual Construction", "ts": 1201517172, "lat": 39.73422, "lon": 116.73923, "status": 4}
{"id": 372, "business_name": "Contract Vision Vision", "ts": 1199821945, "lat": 39.84333, "lon": 116.5486, "status": 2}
{"id": 373, "business_name": "Technology Architecture Federated", "ts": 1201817567, "lat": 39.81855, "lon": 116.31499, "status": 2}
{"id": 374, "business_name": "Graphics Star Bell", "ts": 1199899382, "lat": 40.05143, "lon": 116.39564, "status": 0}
{"id": 375, "business_name": "Design Contract Electronic", "ts": 1199772281, "lat": 40.06427, "lon": 116.59774, "status": 0}
{"id": 376, "business_name": "South Pacific Application", "ts": 1199783129, "lat": 39.82252, "lon": 116.31227, "status": 1}
{"id": 377, "business_name": "Power Advanced General", "ts": 1199281810, "lat": 39.94445, "lon": 116.72506, "status": 1}
{"id": 378, "business_name": "Net Graphics", "ts": 1200946987, "lat": 39.95911, "lon": 116.36862, "status": 0}
{"id": 379, "business_name": "Venture Analysis Power", "ts": 1201655275, "lat": 39.82985, "lon": 116.61003, "status": 1}
{"id": 380, "business_name": "Studio Data Graphics", "ts": 1199528970, "lat": 40.08902, "lon": 116.63626, "status": 0}
{"id": 381, "business_name": "West Resource Data", "ts": 1200441341, "lat": 39.81855, "lon": 116.56416, "status": 3}
{"id": 382, "business_name": "Speed Industries East", "ts": 1201954344, "lat": 39.90645, "lon": 116.54418, "status": 1}
{"id": 383, "business_name": "Pacific Star", "ts": 1200909930, "lat": 39.93327, "lon": 116.11067, "status": 4}
{"id": 384, "business_name": "Net Software", "ts": 1200894543, "lat": 39.71314, "lon": 116.36552, "status": 4}
{"id": 385, "business_name": "Systems Graphics Federated", "ts": 1199745470, "lat": 39.93717, "lon": 116.88641, "status": 0}
{"id": 386, "business_name": "Architecture Omega South", "ts": 1200177221, "lat": 39.78816, "lon": 116.32866, "status": 3}
{"id": 387, "business_name": "Solutions Atlantic Graphics", "ts": 1199184713, "lat": 39.92269, "lon": 116.31392, "status": 2}
{"id": 388, "business_name": "Federated Innovation", "ts": 1199449836, "lat": 39.90895, "lon": 116.57746, "status": 0}
{"id": 389, "business_name": "Resource Max South", "ts": 1199473195, "lat": 39.75265, "lon": 116.53876, "status": 3}
{"id": 390, "business_name": "Speed Omega Innovation", "ts": 1200954328, "lat": 39.98601, "lon": 116.55696, "status": 1}
{"id": 391, "business_name": "Atlantic Venture", "ts": 1199783262, "lat": 39.96962, "lon": 116.26231, "status": 2}
{"id": 392, "business_name": "Graphics Solutions Internet", "ts": 1201781976, "lat": 40.06703, "lon": 116.47236, "status": 3}
{"id": 393, "business_name": "Design Application Pacific", "ts": 1200233027, "lat": 39.7821, "lon": 116.38055, "status": 4}
{"id": 394, "business_name": "Design Research", "ts": 1201718963, "lat": 39.85712, "lon": 116.40404, "status": 3}
{"id": 395, "business_name": "Electronics Application", "ts": 1200103290, "lat": 39.85298, "lon": 116.72131, "status": 3}
{"id": 396, "business_name": "People Virtual Digital", "ts": 1200369738, "lat": 39.78548, "lon": 116.14135, "status": 1}
{"id": 397, "business_name": "Studio Analysis South", "ts": 1201398617, "lat": 39.88108, "lon": 116.59772, "status": 0}
{"id": 398, "business_name": "Electronics Studio", "ts": 1200322733, "lat": 40.02374, "lon": 116.78403, "status": 3}
{"id": 399, "business_name": "Adventure Innovation Consulting", "ts": 1199850328, "lat": 39.95425, "lon": 116.15209, "status": 3}
{"id": 400, "business_name": "Digital Systems Software", "ts": 1199325080, "lat": 39.96621, "lon": 116.3945, "status": 0}
{"id": 401, "business_name": "South Star Application", "ts": 1199187480, "lat": 39.83575, "lon": 116.6877, "status": 4}
{"id": 402, "business_name": "Star South", "ts": 1201554468, "lat": 39.7471, "lon": 116.81407, "status": 3}
{"id": 403, "business_name": "Virtual Federated West", "ts": 1200552350, "lat": 39.91287, "lon": 116.71654, "status": 3}
{"id": 404, "business_name": "Studio Electronics Bell", "ts": 1200103246, "lat": 40.02178, "lon": 116.81335, "status": 0}
{"id": 405, "business_name": "Medicine Universal Vision", "ts": 1201534044, "lat": 39.79152, "lon": 116.59381, "status": 4}
{"id": 406, "business_name": "Hardware Net Direct", "ts": 1200239657, "lat": 39.84504, "lon": 116.42677, "status": 1}
{"id": 407, "business_name": "South Source Venture", "ts": 1201533080, "lat": 39.7773, "lon": 116.33243, "status": 0}
{"id": 408, "business_name": "Construction Direct Studio", "ts": 1201669853, "lat": 39.83602, "lon": 116.88615, "status": 0}
{"id": 409, "business_name": "Future Adventure", "ts": 1199863153, "lat": 39.75014, "lon": 116.10032, "status": 4}
{"id": 410, "business_name": "Speed Studio Max", "ts": 1201950721, "lat": 39.89185, "lon": 116.83291, "status": 4}
{"id": 411, "business_name": "Direct Electronics Adventure", "ts": 1199830571, "lat": 39.81401, "lon": 116.56223, "status": 1}
{"id": 412, "business_name": "Interactive Resource", "ts": 1201059533, "lat": 40.00081, "lon": 116.15033, "status": 2}
{"id": 413, "business_name": "Network Future Bell", "ts": 1200624783, "lat": 39.92739, "lon": 116.8651, "status": 1}
{"id": 414, "business_name": "Research Electronic Signal", "ts": 1199908552, "lat": 40.02722, "lon": 116.60752, "status": 3}
{"id": 415, "business_name": "Max Virtual", "ts": 1199491719, "lat": 40.09529, "lon": 116.23609, "status": 1}
{"id": 416, "business_name": "Galaxy Construction Net", "ts": 1199303808, "lat": 39.72709, "lon": 116.11645, "status": 0}
{"id": 417, "business_name": "Graphics Speed Virtual", "ts": 1200951628, "lat": 39.75934, "lon": 116.43575, "status": 4}
{"id": 418, "business_name": "East Net Electronic", "ts": 1200723332, "lat": 39.94968, "lon": 116.27024, "status": 1}
{"id": 419, "business_name": "Systems Frontier Vision", "ts": 1201070331, "lat": 39.74554, "lon": 116.30549, "status": 1}
{"id": 420, "business_name": "Federated Vision Frontier", "ts": 1199571196, "lat": 39.98151, "lon": 116.78996, "status": 1}
{"id": 421, "business_name": "Alpha Analysis Signal", "ts": 1201571186, "lat": 39.9858, "lon": 116.58439, "status": 1}
{"id": 422, "business_name": "Innovation Electronics Advanced", "ts": 1200515473, "lat": 39.88368, "lon": 116.39192, "status": 1}
{"id": 423, "business_name": "Power People West", "ts": 1200919821, "lat": 39.80236, "lon": 116.24978, "status": 2}
{"id": 424, "business_name": "Star Hardware Pacific", "ts": 1200138724, "lat": 39.76779, "lon": 116.47583, "status": 2}
{"id": 425, "business_name": "Source Adventure Graphics", "ts": 1201971797, "lat": 39.76671, "lon": 116.7052, "status": 2}
{"id": 426, "business_name": "Source Resource Industries", "ts": 1201387187, "lat": 39.95747, "lon": 116.54335, "status": 1}
{"id": 427, "business_name": "Solutions Hardware", "ts": 1200782398, "lat": 39.85221, "lon": 116.34542, "status": 1}
{"id": 428, "business_name": "Interactive Hill Frontier", "ts": 1201645891, "lat": 39.85939, "lon": 116.23129, "status": 2}
{"id": 429, "business_name": "Design Net", "ts": 1201888953, "lat": 39.72356, "lon": 116.87207, "status": 3}
{"id": 430, "business_name": "Pacific Software", "ts": 1200375366, "lat": 39.80904, "lon": 116.21516, "status": 3}
{"id": 431, "business_name": "Star Net Graphics", "ts": 1200415021, "lat": 39.79307, "lon": 116.2751, "status": 4}
{"id": 432, "business_name": "Star West Vision", "ts": 1200259835, "lat": 40.06586, "lon": 116.19011, "status": 1}
{"id": 433, "business_name": "Universal Alpha Universal", "ts": 1200910198, "lat": 40.02529, "lon": 116.8974, "status": 3}
{"id": 434, "business_name": "Advanced Internet", "ts": 1199196803, "lat": 39.89301, "lon": 116.62219, "status": 4}
{"id": 435, "business_name": "Universal Research Omega", "ts": 1199974596, "lat": 39.73909, "lon": 116.79637, "status": 3}
{"id": 436, "business_name": "Advanced Universal Design", "ts": 1200543993, "lat": 39.79826, "lon": 116.55856, "status": 1}
{"id": 437, "business_name": "Galaxy Net Future", "ts": 1200008973, "lat": 39.86139, "lon": 116.79983, "status": 0}
{"id": 438, "business_name": "Vision Virtual", "ts": 1200171754, "lat": 39.72017, "lon": 116.67464, "status": 3}
{"id": 439, "business_name": "Max Star Industries", "ts": 1200582559, "lat": 39.99747, "lon": 116.65983, "status": 0}
{"id": 440, "business_name": "Data Electronics Universal", "ts": 1199729664, "lat": 39.7609, "lon": 116.23627, "status": 0}
{"id": 441, "business_name": "Source People Telecom", "ts": 1200991523, "lat": 39.95743, "lon": 116.29067, "status": 0}
{"id": 442, "business_name": "Star Software Electronic", "ts": 1200858140, "lat": 39.90468, "lon": 116.15265, "status": 3}
{"id": 443, "business_name": "West Power", "ts": 1200216300, "lat": 39.89573, "lon": 116.36638, "status": 4}
{"id": 444, "business_name": "Solutions Data Future", "ts": 1200907073, "lat": 39.99881, "lon": 116.38918, "status": 3}
{"id": 445, "business_name": "Star Data Federated", "ts": 1201785555, "lat": 40.0782, "lon": 116.15151, "status": 1}
{"id": 446, "business_name": "Alpha Graphics Network", "ts": 1201394787, "lat": 39.79014, "lon": 116.36441, "status": 4}
{"id": 447, "business_name": "Electronic Innovation", "ts": 1200066023, "lat": 40.02917, "lon": 116.6082, "status": 4}
{"id": 448, "business_name": "Telecom Construction", "ts": 1200778429, "lat": 39.85527, "lon": 116.71733, "status": 1}
{"id": 449, "business_name": "Virtual Hill Vision", "ts": 1200956771, "lat": 40.07037, "lon": 116.62444, "status": 0}
{"id": 450, "business_name": "Star Venture Innovation", "ts": 1201336900, "lat": 40.07116, "lon": 116.63239, "status": 2}
{"id": 451, "business_name": "Technology Design Data", "ts": 1199382569, "lat": 40.08752, "lon": 116.68039, "status": 0}
{"id": 452, "business_name": "Adventure Power", "ts": 1201134270, "lat": 39.76951, "lon": 116.3464, "status": 0}
{"id": 453, "business_name": "Net Hill Venture", "ts": 1200261271, "lat": 39.92962, "lon": 116.40217, "status": 0}
{"id": 454, "business_name": "Resource Analysis Advanced", "ts": 1199339880, "lat": 39.73737, "lon": 116.53552, "status": 3}
{"id": 455, "business_name": "Source Signal", "ts": 1199571165, "lat": 39.94081, "lon": 116.27552, "status": 2}
{"id": 456, "business_name": "Atlantic Network Architecture", "ts": 1201093560, "lat": 39.86819, "lon": 116.12508, "status": 0}
{"id": 457, "business_name": "Studio Resource", "ts": 1199496674, "lat": 39.74763, "lon": 116.11049, "status": 0}
{"id": 458, "business_name": "Alpha Construction Signal", "ts": 1201431825, "lat": 39.9662, "lon": 116.72202, "status": 2}
{"id": 459, "business_name": "Studio Building Graphics", "ts": 1200221226, "lat": 40.06354, "lon": 116.47524, "status": 1}
{"id": 460, "business_name": "Resource Direct", "ts": 1199461248, "lat": 39.93926, "lon": 116.41422, "status": 0}
{"id": 461, "business_name": "Industries Adventure", "ts": 1201192703, "lat": 40.04421, "lon": 116.34679, "status": 3}
{"id": 462, "business_name": "Digital Signal", "ts": 1201780544, "lat": 40.01119, "lon": 116.3238, "status": 4}
{"id": 463, "business_name": "Vision Telecom Max", "ts": 1199839817, "lat": 39.97622, "lon": 116.15708, "status": 0}
{"id": 464, "business_name": "Vision Direct", "ts": 1201396776, "lat": 40.06096, "lon": 116.52298, "status": 1}
{"id": 465, "business_name": "Net Electronic Interactive", "ts": 1200543335, "lat": 39.885, "lon": 116.49068, "status": 4}
{"id": 466, "business_name": "Studio Consulting People", "ts": 1200779439, "lat": 40.03747, "lon": 116.13479, "status": 1}
{"id": 467, "business_name": "Galaxy Net", "ts": 1200820464, "lat": 39.94401, "lon": 116.51706, "status": 4}
{"id": 468, "business_name": "Systems Vision Virtual", "ts": 1201180437, "lat": 39.82363, "lon": 116.8228, "status": 1}
{"id": 469, "business_name": "Analysis Source", "ts": 1199676133, "lat": 39.98341, "lon": 116.63264, "status": 2}
{"id": 470, "business_name": "Atlantic Research", "ts": 1199540158, "lat": 39.974, "lon": 116.27395, "status": 2}
{"id": 471, "business_name": "Provider Studio Atlantic", "ts": 1199863205, "lat": 39.77803, "lon": 116.26713, "status": 4}
{"id": 472, "business_name": "Federated Frontier Hill", "ts": 1199427384, "lat": 39.76973, "lon": 116.2008, "status": 3}
{"id": 473, "business_name": "Architecture Vision Software", "ts": 1199451782, "lat": 39.89198, "lon": 116.50486, "status": 1}
{"id": 474, "business_name": "Omega Virtual Federated", "ts": 1201325424, "lat": 39.71252, "lon": 116.25987, "status": 3}
{"id": 475, "business_name": "People Industries Power", "ts": 1200496782, "lat": 39.8335, "lon": 116.79053, "status": 0}
{"id": 476, "business_name": "South Application Atlantic", "ts": 1199320843, "lat": 39.75333, "lon": 116.62673, "status": 0}
{"id": 477, "business_name": "Atlantic Architecture Federated", "ts": 1200301641, "lat": 39.76718, "lon": 116.85648, "status": 3}
{"id": 478, "business_name": "Analysis Omega Construction", "ts": 1199463516, "lat": 39.78001, "lon": 116.19393, "status": 3}
{"id": 479, "business_name": "Technology Hardware Electronic", "ts": 1200623057, "lat": 39.87676, "lon": 116.65388, "status": 1}
{"id": 480, "business_name": "Solutions Direct Federated", "ts": 1201456104, "lat": 39.97646, "lon": 116.5807, "status": 1}
{"id": 481, "business_name": "Contract Studio People", "ts": 1200682020, "lat": 39.95857, "lon": 116.13047, "status": 2}
{"id": 482, "business_name": "Design Max Systems", "ts": 1199510735, "lat": 39.85438, "lon": 116.27248, "status": 0}
{"id": 483, "business_name": "Solutions Data Interactive", "ts": 1199943731, "lat": 39.72402, "lon": 116.25909, "status": 0}
{"id": 484, "business_name": "Max Star Net", "ts": 1200578079, "lat": 39.97495, "lon": 116.72043, "status": 1}
{"id": 485, "business_name": "Vision North East", "ts": 1199294849, "lat": 39.88249, "lon": 116.18897, "status": 2}
{"id": 486, "business_name": "Solutions Hill", "ts": 1200044809, "lat": 39.96667, "lon": 116.55412, "status": 4}
{"id": 487, "business_name": "Atlantic Internet Electronic", "ts": 1199969452, "lat": 39.86672, "lon": 116.5756, "status": 0}
{"id": 488, "business_name": "Future Max Interactive", "ts": 1200756146, "lat": 39.71146, "lon": 116.18213, "status": 2}
{"id": 489, "business_name": "Electronics Frontier Speed", "ts": 1199672470, "lat": 40.04686, "lon": 116.51096, "status": 1}
{"id": 490, "business_name": "Data Network Building", "ts": 1199778979, "lat": 39.90885, "lon": 116.1444, "status": 0}
{"id": 491, "business_name": "Building East Internet", "ts": 1199240737, "lat": 39.98386, "lon": 116.77807, "status": 3}
{"id": 492, "business_name": "Data Electronic", "ts": 1199247618, "lat": 39.97108, "lon": 116.84134, "status": 3}
{"id": 493, "business_name": "Star Net Advanced", "ts": 1199908444, "lat": 39.90275, "lon": 116.60518, "status": 1}
{"id": 494, "business_name": "Systems Design", "ts": 1199665860, "lat": 40.07481, "lon": 116.79631, "status": 1}
{"id": 495, "business_name": "North Systems Galaxy", "ts": 1201125681, "lat": 40.07124, "lon": 116.20184, "status": 0}
{"id": 496, "business_name": "People East Design", "ts": 1200633801, "lat": 39.81586, "lon": 116.27411, "status": 0}
{"id": 497, "business_name": "Omega Direct People", "ts": 1200790709, "lat": 40.02341, "lon": 116.39741, "status": 3}
{"id": 498, "business_name": "Federated Resource People", "ts": 1201051261, "lat": 40.05681, "lon": 116.5282, "status": 3}
{"id": 499, "business_name": "Star Contract Signal", "ts": 1201225292, "lat": 39.70804, "lon": 116.55049, "status": 4}
{"id": 500, "business_name": "Venture Solutions", "ts": 1201644106, "lat": 39.9081, "lon": 116.16141, "status": 1}
{"id": 501, "business_name": "East Interactive South", "ts": 1199419230, "lat": 39.84205, "lon": 116.75407, "status": 1}
{"id": 502, "business_name": "Analysis General", "ts": 1201013483, "lat": 39.71394, "lon": 116.18362, "status": 4}
{"id": 503, "business_name": "Resource Network", "ts": 1201060164, "lat": 39.70829, "lon": 116.67443, "status": 2}
{"id": 504, "business_name": "South Adventure Interactive", "ts": 1201390713, "lat": 39.85645, "lon": 116.67689, "status": 3}
{"id": 505, "business_name": "Star Building Software", "ts": 1201572309, "lat": 40.00378, "lon": 116.70778, "status": 2}
{"id": 506, "business_name": "Source Construction", "ts": 1201039872, "lat": 39.93097, "lon": 116.53347, "status": 0}
{"id": 507, "business_name": "People People", "ts": 1199711214, "lat": 39.98905, "lon": 116.67815, "status": 0}
{"id": 508, "business_name": "Max Graphics Industries", "ts": 1201294765, "lat": 40.07135, "lon": 116.59315, "status": 0}
{"id": 509, "business_name": "Industries Design Federated", "ts": 1201848326, "lat": 39.96507, "lon": 116.50649, "status": 1}
{"id": 510, "business_name": "People Solutions Signal", "ts": 1200719284, "lat": 39.81712, "lon": 116.81338, "status": 4}
{"id": 511, "business_name": "Atlantic Frontier", "ts": 1200907459, "lat": 40.03797, "lon": 116.82255, "status": 4}
{"id": 512, "business_name": "Data Provider Source", "ts": 1201303608, "lat": 39.90379, "lon": 116.44229, "status": 1}
{"id": 513, "business_name": "Application West Direct", "ts": 1201106372, "lat": 39.89645, "lon": 116.36995, "status": 3}
{"id": 514, "business_name": "West Speed Software", "ts": 1201927519, "lat": 40.0122, "lon": 116.76389, "status": 4}
{"id": 515, "business_name": "Solutions Innovation", "ts": 1200249079, "lat": 39.79702, "lon": 116.87247, "status": 3}
{"id": 516, "business_name": "Galaxy Innovation Technology", "ts": 1201575626, "lat": 40.06276, "lon": 116.64838, "status": 0}
{"id": 517, "business_name": "Research Design", "ts": 1201895156, "lat": 39.83031, "lon": 116.2756, "status": 2}
{"id": 518, "business_name": "Power Speed Speed", "ts": 1201324755, "lat": 40.01069, "lon": 116.14441, "status": 4}
{"id": 519, "business_name": "Future Electronic", "ts": 1200099040, "lat": 40.01604, "lon": 116.44715, "status": 2}
{"id": 520, "business_name": "Federated Electronic Source", "ts": 1199565317, "lat": 40.05642, "lon": 116.88577, "status": 3}
{"id": 521, "business_name": "Future Virtual Software", "ts": 1200468664, "lat": 40.05955, "lon": 116.4175, "status": 3}
{"id": 522, "business_name": "Contract Architecture", "ts": 1199763265, "lat": 40.0181, "lon": 116.42611, "status": 0}
{"id": 523, "business_name": "Net Application Design", "ts": 1200126401, "lat": 39.99353, "lon": 116.49601, "status": 0}
{"id": 524, "business_name": "Bell Innovation", "ts": 1199637016, "lat": 39.85816, "lon": 116.48898, "status": 0}
{"id": 525, "business_name": "Hardware Hill", "ts": 1201120085, "lat": 39.82524, "lon": 116.84966, "status": 2}
{"id": 526, "business_name": "Application Venture", "ts": 1199403295, "lat": 39.81666, "lon": 116.49373, "status": 2}
{"id": 527, "business_name": "Contract Venture", "ts": 1200753876, "lat": 39.8005, "lon": 116.43836, "status": 1}
{"id": 528, "business_name": "Construction Signal", "ts": 1201115420, "lat": 40.08985, "lon": 116.61146, "status": 3}
{"id": 529, "business_name": "Interactive Telecom Digital", "ts": 1199878681, "lat": 40.07614, "lon": 116.1852, "status": 0}
{"id": 530, "business_name": "Venture Advanced Contract", "ts": 1201259641, "lat": 39.94475, "lon": 116.84496, "status": 1}
{"id": 531, "business_name": "Pacific Vision Network", "ts": 1200023633, "lat": 39.93302, "lon": 116.84887, "status": 1}
{"id": 532, "business_name": "Technology Omega Graphics", "ts": 1200145201, "lat": 39.76429, "lon": 116.34979, "status": 1}
{"id": 533, "business_name": "Graphics Application Venture", "ts": 1200187554, "lat": 40.00742, "lon": 116.62127, "status": 1}
{"id": 534, "business_name": "Innovation Star", "ts": 1201195122, "lat": 39.92935, "lon": 116.49241, "status": 3}
{"id": 535, "business_name": "West Telecom Telecom", "ts": 1199921778, "lat": 39.79633, "lon": 116.66834, "status": 0}
{"id": 536, "business_name": "West Technology Atlantic", "ts": 1200029615, "lat": 39.97522, "lon": 116.2614, "status": 4}
{"id": 537, "business_name": "Solutions Source Net", "ts": 1200394854, "lat": 39.79213, "lon": 116.78824, "status": 4}
{"id": 538, "business_name": "Virtual Industries Medicine", "ts": 1200889025, "lat": 40.04204, "lon": 116.22963, "status": 1}
{"id": 539, "business_name": "Hill Technology Future", "ts": 1200656515, "lat": 40.0004, "lon": 116.25492, "status": 2}
{"id": 540, "business_name": "Interactive Adventure North", "ts": 1199292362, "lat": 39.91648, "lon": 116.46426, "status": 4}
{"id": 541, "business_name": "Interactive Medicine Studio", "ts": 1200632707, "lat": 39.96865, "lon": 116.55656, "status": 1}
{"id": 542, "business_name": "Internet Consulting Network", "ts": 1201193894, "lat": 40.03645, "lon": 116.68268, "status": 3}
{"id": 543, "business_name": "Provider Galaxy", "ts": 1201258029, "lat": 39.87876, "lon": 116.63928, "status": 1}
{"id": 544, "business_name": "Resource Federated Frontier", "ts": 1200730274, "lat": 39.92959, "lon": 116.21902, "status": 0}
{"id": 545, "business_name": "Federated Interactive Power", "ts": 1199643827, "lat": 39.86753, "lon": 116.84409, "status": 3}
{"id": 546, "business_name": "Design Atlantic Internet", "ts": 1201188239, "lat": 39.73373, "lon": 116.79913, "status": 2}
{"id": 547, "business_name": "Pacific Advanced", "ts": 1201403852, "lat": 39.74814, "lon": 116.79364, "status": 4}
{"id": 548, "business_name": "Solutions Resource", "ts": 1201640057, "lat": 39.71374, "lon": 116.22095, "status": 1}
{"id": 549, "business_name": "Research Speed Galaxy", "ts": 1201830864, "lat": 39.98298, "lon": 116.75507, "status": 4}
{"id": 550, "business_name": "East Frontier", "ts": 1200502777, "lat": 39.74963, "lon": 116.72376, "status": 1}
{"id": 551, "business_name": "Universal East Software", "ts": 1199682438, "lat": 39.82173, "lon": 116.61164, "status": 3}
{"id": 552, "business_name": "General Internet", "ts": 1199731521, "lat": 39.85893, "lon": 116.63445, "status": 1}
{"id": 553, "business_name": "Graphics Hill Advanced", "ts": 1200415093, "lat": 39.74855, "lon": 116.2654, "status": 0}
{"id": 554, "business_name": "Application Resource Omega", "ts": 1201605250, "lat": 39.73411, "lon": 116.58765, "status": 2}
{"id": 555, "business_name": "Atlantic East Federated", "ts": 1200918959, "lat": 39.8964, "lon": 116.21477, "status": 1}
{"id": 556, "business_name": "Signal Data", "ts": 1200791955, "lat": 40.00375, "lon": 116.32216, "status": 1}
{"id": 557, "business_name": "Net Construction", "ts": 1200370155, "lat": 40.08641, "lon": 116.41025, "status": 1}
{"id": 558, "business_name": "Hardware Architecture Technology", "ts": 1201396107, "lat": 39.70384, "lon": 116.38319, "status": 3}
{"id": 559, "business_name": "Consulting Alpha", "ts": 1200314621, "lat": 40.07191, "lon": 116.34003, "status": 0}
{"id": 560, "business_name": "People Electronics Innovation", "ts": 1200374915, "lat": 40.06199, "lon": 116.76614, "status": 4}
{"id": 561, "business_name": "Technology Electronics Hardware", "ts": 1200408841, "lat": 39.90564, "lon": 116.58898, "status": 2}
{"id": 562, "business_name": "Analysis Virtual Vision", "ts": 1200757765, "lat": 39.96707, "lon": 116.56779, "status": 0}
{"id": 563, "business_name": "Studio Electronic Research", "ts": 1199294300, "lat": 40.07087, "lon": 116.18456, "status": 0}
{"id": 564, "business_name": "Medicine People Max", "ts": 1199501139, "lat": 39.7514, "lon": 116.52694, "status": 0}
{"id": 565, "business_name": "Resource Bell Consulting", "ts": 1200750668, "lat": 39.89785, "lon": 116.5657, "status": 3}
{"id": 566, "business_name": "Digital Contract East", "ts": 1199616851, "lat": 39.75508, "lon": 116.21333, "status": 1}
{"id": 567, "business_name": "Vision Galaxy Data", "ts": 1201524933, "lat": 40.09812, "lon": 116.22943, "status": 2}
{"id": 568, "business_name": "Direct Systems Contract", "ts": 1199347119, "lat": 40.07265, "lon": 116.55093, "status": 3}
{"id": 569, "business_name": "Venture Interactive", "ts": 1200601023, "lat": 40.09711, "lon": 116.51533, "status": 4}
{"id": 570, "business_name": "Medicine Contract Star", "ts": 1200033041, "lat": 39.93904, "lon": 116.28135, "status": 4}
{"id": 571, "business_name": "Network Star", "ts": 1201053681, "lat": 39.71429, "lon": 116.78422, "status": 1}
{"id": 572, "business_name": "Internet Advanced Frontier", "ts": 1201912850, "lat": 39.85054, "lon": 116.37086, "status": 4}
{"id": 573, "business_name": "East Hardware Digital", "ts": 1201701358, "lat": 39.75586, "lon": 116.12321, "status": 4}
{"id": 574, "business_name": "General Industries Adventure", "ts": 1200495978, "lat": 39.86561, "lon": 116.5165, "status": 4}
{"id": 575, "business_name": "Net North", "ts": 1199963769, "lat": 40.0563, "lon": 116.89237, "status": 4}
{"id": 576, "business_name": "Net Direct East", "ts": 1199277666, "lat": 40.0369, "lon": 116.22489, "status": 0}
{"id": 577, "business_name": "Net Building", "ts": 1201817074, "lat": 39.98747, "lon": 116.53447, "status": 3}
{"id": 578, "business_name": "Alpha Pacific Hardware", "ts": 1200149784, "lat": 39.81172, "lon": 116.47933, "status": 2}
{"id": 579, "business_name": "General Pacific Universal", "ts": 1201673099, "lat": 39.94508, "lon": 116.64817, "status": 4}
{"id": 580, "business_name": "Digital West Construction", "ts": 1201258655, "lat": 39.91451, "lon": 116.329, "status": 4}
{"id": 581, "business_name": "Medicine Advanced Analysis", "ts": 1199653445, "lat": 40.01123, "lon": 116.80189, "status": 0}
{"id": 582, "business_name": "Vision Source Innovation", "ts": 1201268140, "lat": 39.97422, "lon": 116.21504, "status": 0}
{"id": 583, "business_name": "Data Construction", "ts": 1200046549, "lat": 39.91848, "lon": 116.78836, "status": 0}
{"id": 584, "business_name": "Graphics Technology", "ts": 1199209201, "lat": 39.74598, "lon": 116.55207, "status": 2}
{"id": 585, "business_name": "Consulting Medicine Construction", "ts": 1201884180, "lat": 39.96523, "lon": 116.26022, "status": 0}
{"id": 586, "business_name": "Provider Design Network", "ts": 1201913967, "lat": 39.89735, "lon": 116.4338, "status": 3}
{"id": 587, "business_name": "Design Bell Power", "ts": 1199257315, "lat": 39.97818, "lon": 116.58181, "status": 3}
{"id": 588, "business_name": "Electronics Star Venture", "ts": 1200977078, "lat": 39.86239, "lon": 116.74812, "status": 0}
{"id": 589, "business_name": "Net General Systems", "ts": 1199573870, "lat": 39.82814, "lon": 116.81024, "status": 0}
{"id": 590, "business_name": "Venture Building West", "ts": 1201881205, "lat": 39.96693, "lon": 116.63384, "status": 2}
{"id": 591, "business_name": "Power West", "ts": 1201824808, "lat": 39.79774, "lon": 116.64699, "status": 2}
{"id": 592, "business_name": "Research Bell Vision", "ts": 1200855367, "lat": 39.75482, "lon": 116.45893, "status": 2}
{"id": 593, "business_name": "Omega Atlantic Adventure", "ts": 1199949183, "lat": 40.04687, "lon": 116.57963, "status": 3}
{"id": 594, "business_name": "Building Research", "ts": 1201917071, "lat": 39.89176, "lon": 116.35588, "status": 3}
{"id": 595, "business_name": "Telecom Design", "ts": 1201505095, "lat": 39.91732, "lon": 116.14997, "status": 0}
{"id": 596, "business_name": "Architecture Power Omega", "ts": 1200068003, "lat": 39.7996, "lon": 116.85268, "status": 4}
{"id": 597, "business_name": "Network People", "ts": 1199590053, "lat": 39.72826, "lon": 116.85375, "status": 3}
{"id": 598, "business_name": "Data Hill Pacific", "ts": 1201801807, "lat": 39.8744, "lon": 116.3368, "status": 3}
{"id": 599, "business_name": "Provider Solutions", "ts": 1201237268, "lat": 40.07336, "lon": 116.54448, "status": 0}
{"id": 600, "business_name": "Pacific Max Interactive", "ts": 1199734656, "lat": 40.06845, "lon": 116.55014, "status": 3}
{"id": 601, "business_name": "Source Graphics", "ts": 1201358124, "lat": 39.82203, "lon": 116.74727, "status": 0}
{"id": 602, "business_name": "Resource Frontier Power", "ts": 1200624009, "lat": 40.04738, "lon": 116.49913, "status": 3}
{"id": 603, "business_name": "Alpha Max Application", "ts": 1199410939, "lat": 39.85314, "lon": 116.47542, "status": 1}
{"id": 604, "business_name": "Alpha Consulting Application", "ts": 1199289371, "lat": 39.76038, "lon": 116.28134, "status": 2}
{"id": 605, "business_name": "Electronic General Vision", "ts": 1200997637, "lat": 39.70944, "lon": 116.28315, "status": 1}
{"id": 606, "business_name": "Omega East Medicine", "ts": 1199687298, "lat": 39.85402, "lon": 116.24551, "status": 4}
{"id": 607, "business_name": "Max Source Star", "ts": 1199620648, "lat": 40.07531, "lon": 116.11105, "status": 4}
{"id": 608, "business_name": "Net Virtual People", "ts": 1201508049, "lat": 39.76639, "lon": 116.27939, "status": 0}
{"id": 609, "business_name": "West Net Vision", "ts": 1200113640, "lat": 39.77337, "lon": 116.74903, "status": 4}
{"id": 610, "business_name": "Hill Application Federated", "ts": 1200477370, "lat": 39.87229, "lon": 116.54453, "status": 0}
{"id": 611, "business_name": "Analysis Solutions", "ts": 1201474550, "lat": 39.75916, "lon": 116.5925, "status": 2}
{"id": 612, "business_name": "Building Virtual Direct", "ts": 1200853756, "lat": 39.78123, "lon": 116.66718, "status": 3}
{"id": 613, "business_name": "Software West Provider", "ts": 1199992447, "lat": 39.97992, "lon": 116.57727, "status": 0}
{"id": 614, "business_name": "Technology Virtual", "ts": 1200037303, "lat": 40.03351, "lon": 116.16802, "status": 0}
{"id": 615, "business_name": "Star Internet", "ts": 1200544498, "lat": 39.89073, "lon": 116.51487, "status": 3}
{"id": 616, "business_name": "Atlantic Provider Building", "ts": 1199692162, "lat": 39.86507, "lon": 116.25709, "status": 0}
{"id": 617, "business_name": "Net Medicine Source", "ts": 1200733563, "lat": 39.91306, "lon": 116.23781, "status": 1}
{"id": 618, "business_name": "Contract General", "ts": 1200646071, "lat": 40.01056, "lon": 116.37695, "status": 2}
{"id": 619, "business_name": "Federated Adventure Application", "ts": 1200027904, "lat": 39.84987, "lon": 116.17577, "status": 3}
{"id": 620, "business_name": "Hardware Industries Resource", "ts": 1201030096, "lat": 39.81971, "lon": 116.77956, "status": 0}
{"id": 621, "business_name": "Max Omega Solutions", "ts": 1200587373, "lat": 40.04602, "lon": 116.46168, "status": 2}
{"id": 622, "business_name": "South Adventure Vision", "ts": 1200553321, "lat": 40.05022, "lon": 116.22777, "status": 4}
{"id": 623, "business_name": "Direct People Graphics", "ts": 1201544991, "lat": 39.7981, "lon": 116.49584, "status": 2}
{"id": 624, "business_name": "Design Digital Electronics", "ts": 1200796373, "lat": 39.76419, "lon": 116.35626, "status": 0}
{"id": 625, "business_name": "Net Systems", "ts": 1201216588, "lat": 39.74293, "lon": 116.49065, "status": 2}
{"id": 626, "business_name": "Direct Venture Analysis", "ts": 1200005050, "lat": 39.73939, "lon": 116.86307, "status": 4}
{"id": 627, "business_name": "Star Contract", "ts": 1201428983, "lat": 39.81532, "lon": 116.36204, "status": 4}
{"id": 628, "business_name": "Graphics North Provider", "ts": 1200243236, "lat": 39.76505, "lon": 116.26024, "status": 2}
{"id": 629, "business_name": "Adventure Industries", "ts": 1201517763, "lat": 39.98622, "lon": 116.24325, "status": 3}
{"id": 630, "business_name": "Solutions Research Atlantic", "ts": 1201212276, "lat": 39.76242, "lon": 116.56836, "status": 4}
{"id": 631, "business_name": "Solutions East Hill", "ts": 1200833156, "lat": 39.84347, "lon": 116.59154, "status": 1}
{"id": 632, "business_name": "Construction Provider", "ts": 1199510246, "lat": 39.80855, "lon": 116.26751, "status": 4}
{"id": 633, "business_name": "Systems Signal", "ts": 1199616430, "lat": 39.88539, "lon": 116.66425, "status": 1}
{"id": 634, "business_name": "Net Advanced Medicine", "ts": 1200933986, "lat": 39.81463, "lon": 116.15719, "status": 1}
{"id": 635, "business_name": "Source Universal", "ts": 1200527316, "lat": 39.88424, "lon": 116.4597, "status": 2}
{"id": 636, "business_name": "Direct Net East", "ts": 1199835738, "lat": 39.74797, "lon": 116.83975, "status": 4}
{"id": 637, "business_name": "Omega Universal Frontier", "ts": 1199180412, "lat": 39.81212, "lon": 116.37104, "status": 2}
{"id": 638, "business_name": "Interactive West", "ts": 1199805334, "lat": 39.97773, "lon": 116.49374, "status": 3}
{"id": 639, "business_name": "Power Application Technology", "ts": 1199898017, "lat": 39.94129, "lon": 116.43075, "status": 2}
{"id": 640, "business_name": "Bell Electronics", "ts": 1201694962, "lat": 39.99351, "lon": 116.25086, "status": 0}
{"id": 641, "business_name": "Building Net Technology", "ts": 1201518272, "lat": 39.96651, "lon": 116.25647, "status": 0}
{"id": 642, "business_name": "Systems People Omega", "ts": 1199310229, "lat": 39.7283, "lon": 116.39283, "status": 1}
{"id": 643, "business_name": "Studio Innovation Hardware", "ts": 1200754022, "lat": 39.89718, "lon": 116.15489, "status": 3}
{"id": 644, "business_name": "Electronic Power East", "ts": 1200497728, "lat": 39.72389, "lon": 116.34681, "status": 0}
{"id": 645, "business_name": "Industries Systems People", "ts": 1200186124, "lat": 39.96464, "lon": 116.34455, "status": 3}
{"id": 646, "business_name": "South Direct", "ts": 1199761498, "lat": 39.78886, "lon": 116.29387, "status": 3}
{"id": 647, "business_name": "Data East Net", "ts": 1199271049, "lat": 39.79187, "lon": 116.80312, "status": 3}
{"id": 648, "business_name": "Signal Alpha", "ts": 1199867014, "lat": 39.88377, "lon": 116.83848, "status": 2}
{"id": 649, "business_name": "Adventure Network", "ts": 1200486287, "lat": 40.02644, "lon": 116.10834, "status": 3}
{"id": 650, "business_name": "North Vision", "ts": 1199891305, "lat": 39.93822, "lon": 116.62613, "status": 4}
{"id": 651, "business_name": "Signal West Hill", "ts": 1199974099, "lat": 39.77339, "lon": 116.78064, "status": 3}
{"id": 652, "business_name": "Power North", "ts": 1201617729, "lat": 39.9055, "lon": 116.47465, "status": 3}
{"id": 653, "business_name": "Galaxy General Consulting", "ts": 1201195667, "lat": 39.91204, "lon": 116.17783, "status": 4}
{"id": 654, "business_name": "Max Systems", "ts": 1199731204, "lat": 39.79529, "lon": 116.73237, "status": 1}
{"id": 655, "business_name": "Application People Data", "ts": 1201068690, "lat": 39.84735, "lon": 116.46508, "status": 4}
{"id": 656, "business_name": "West Systems", "ts": 1199853166, "lat": 39.88894, "lon": 116.86624, "status": 4}
{"id": 657, "business_name": "Research Venture Vision", "ts": 1201469609, "lat": 40.06993, "lon": 116.23556, "status": 2}
{"id": 658, "business_name": "Consulting Future Omega", "ts": 1199376609, "lat": 40.05889, "lon": 116.49409, "status": 2}
{"id": 659, "business_name": "Venture Federated Provider", "ts": 1200466999, "lat": 39.78934, "lon": 116.15068, "status": 0}
{"id": 660, "business_name": "People Interactive Venture", "ts": 1200104432, "lat": 40.09017, "lon": 116.13802, "status": 3}
{"id": 661, "business_name": "Venture Research Design", "ts": 1201086352, "lat": 39.70454, "lon": 116.37294, "status": 1}
{"id": 662, "business_name": "Internet Virtual", "ts": 1200880550, "lat": 40.00415, "lon": 116.82004, "status": 3}
{"id": 663, "business_name": "East Omega", "ts": 1201280271, "lat": 40.07483, "lon": 116.32114, "status": 4}
{"id": 664, "business_name": "Analysis Digital", "ts": 1199301479, "lat": 39.76962, "lon": 116.43352, "status": 2}
{"id": 665, "business_name": "Future Contract Frontier", "ts": 1199709215, "lat": 39.79004, "lon": 116.88259, "status": 3}
{"id": 666, "business_name": "South Direct Building", "ts": 1201562140, "lat": 39.9563, "lon": 116.65337, "status": 4}
{"id": 667, "business_name": "Pacific Architecture", "ts": 1200392717, "lat": 40.04675, "lon": 116.65231, "status": 1}
{"id": 668, "business_name": "Star Digital Signal", "ts": 1199998624, "lat": 39.83075, "lon": 116.11648, "status": 0}
{"id": 669, "business_name": "Omega Vision Innovation", "ts": 1201413182, "lat": 39.79445, "lon": 116.19289, "status": 1}
{"id": 670, "business_name": "Industries Power", "ts": 1200246616, "lat": 39.79026, "lon": 116.28571, "status": 4}
{"id": 671, "business_name": "Venture Universal Future", "ts": 1199746043, "lat": 39.70881, "lon": 116.78154, "status": 1}
{"id": 672, "business_name": "Future Analysis Federated", "ts": 1199376566, "lat": 39.97981, "lon": 116.21105, "status": 1}
{"id": 673, "business_name": "North Telecom Hardware", "ts": 1199689602, "lat": 39.98522, "lon": 116.48914, "status": 0}
{"id": 674, "business_name": "Solutions Future Graphics", "ts": 1199501755, "lat": 39.89701, "lon": 116.63933, "status": 2}
{"id": 675, "business_name": "Galaxy Design Alpha", "ts": 1200196164, "lat": 39.84688, "lon": 116.66446, "status": 4}
{"id": 676, "business_name": "Solutions Innovation", "ts": 1200233265, "lat": 40.06118, "lon": 116.71141, "status": 2}
{"id": 677, "business_name": "Medicine South Solutions", "ts": 1201196984, "lat": 40.06181, "lon": 116.15977, "status": 2}
{"id": 678, "business_name": "Application Internet Solutions", "ts": 1199544199, "lat": 39.87588, "lon": 116.5893, "status": 1}
{"id": 679, "business_name": "Pacific Alpha", "ts": 1200027213, "lat": 39.99515, "lon": 116.16826, "status": 4}
{"id": 680, "business_name": "Federated Medicine Digital", "ts": 1201782923, "lat": 39.77455, "lon": 116.43422, "status": 4}
{"id": 681, "business_name": "Bell Direct Digital", "ts": 1199554367, "lat": 40.04121, "lon": 116.60708, "status": 3}
{"id": 682, "business_name": "Source Internet South", "ts": 1201522528, "lat": 39.70119, "lon": 116.66669, "status": 4}
{"id": 683, "business_name": "Industries Power South", "ts": 1200277171, "lat": 39.88274, "lon": 116.23441, "status": 3}
{"id": 684, "business_name": "Speed Digital", "ts": 1200546635, "lat": 39.85844, "lon": 116.57767, "status": 2}
{"id": 685, "business_name": "Research Frontier", "ts": 1199313834, "lat": 40.09424, "lon": 116.35762, "status": 4}
{"id": 686, "business_name": "Solutions Hill Network", "ts": 1201136248, "lat": 39.77151, "lon": 116.40894, "status": 4}
{"id": 687, "business_name": "Architecture Future Application", "ts": 1200071156, "lat": 39.81053, "lon": 116.15621, "status": 2}
{"id": 688, "business_name": "Omega Net", "ts": 1201471016, "lat": 39.89459, "lon": 116.24111, "status": 3}
{"id": 689, "business_name": "Vision Atlantic", "ts": 1200340614, "lat": 39.89956, "lon": 116.23, "status": 0}
{"id": 690, "business_name": "Vision Industries Adventure", "ts": 1200643525, "lat": 39.98903, "lon": 116.3512, "status": 3}
{"id": 691, "business_name": "Interactive Bell Max", "ts": 1199687385, "lat": 40.06599, "lon": 116.29662, "status": 1}
{"id": 692, "business_name": "Contract Net Studio", "ts": 1200582137, "lat": 40.02776, "lon": 116.47829, "status": 0}
{"id": 693, "business_name": "People Atlantic Solutions", "ts": 1200798392, "lat": 39.8376, "lon": 116.77706, "status": 2}
{"id": 694, "business_name": "Omega Hardware Medicine", "ts": 1201233228, "lat": 39.7827, "lon": 116.25591, "status": 0}
{"id": 695, "business_name": "Galaxy Star Industries", "ts": 1200291996, "lat": 39.96996, "lon": 116.48333, "status": 4}
{"id": 696, "business_name": "West Bell Analysis", "ts": 1201575049, "lat": 40.04103, "lon": 116.57168, "status": 0}
{"id": 697, "business_name": "Network Future Software", "ts": 1201545705, "lat": 39.73586, "lon": 116.24593, "status": 3}
{"id": 698, "business_name": "Adventure Resource", "ts": 1200511926, "lat": 39.84915, "lon": 116.60333, "status": 3}
{"id": 699, "business_name": "Design Source Architecture", "ts": 1199595673, "lat": 39.89706, "lon": 116.13021, "status": 0}
{"id": 700, "business_name": "Galaxy Vision Net", "ts": 1199779955, "lat": 39.99576, "lon": 116.11112, "status": 1}
{"id": 701, "business_name": "Data Network Advanced", "ts": 1199850867, "lat": 40.05799, "lon": 116.54829, "status": 0}
{"id": 702, "business_name": "Pacific Medicine Electronics", "ts": 1200990106, "lat": 39.73905, "lon": 116.79733, "status": 3}
{"id": 703, "business_name": "General Vision Data", "ts": 1201559944, "lat": 40.0821, "lon": 116.12417, "status": 3}
{"id": 704, "business_name": "Design Net", "ts": 1201974936, "lat": 39.73854, "lon": 116.71399, "status": 2}
{"id": 705, "business_name": "Studio Bell", "ts": 1201083626, "lat": 39.82524, "lon": 116.1377, "status": 1}
{"id": 706, "business_name": "Star Power", "ts": 1201629384, "lat": 39.92562, "lon": 116.4711, "status": 3}
{"id": 707, "business_name": "Solutions Net", "ts": 1200412970, "lat": 39.75664, "lon": 116.89445, "status": 2}
{"id": 708, "business_name": "Max Internet Resource", "ts": 1200084045, "lat": 40.02959, "lon": 116.56228, "status": 1}
{"id": 709, "business_name": "Application Solutions", "ts": 1199197939, "lat": 39.83566, "lon": 116.40976, "status": 4}
{"id": 710, "business_name": "Solutions Electronics Provider", "ts": 1201200779, "lat": 40.08694, "lon": 116.77576, "status": 2}
{"id": 711, "business_name": "Network Galaxy Hardware", "ts": 1201393692, "lat": 39.98309, "lon": 116.62056, "status": 1}
{"id": 712, "business_name": "Telecom Design", "ts": 1201700360, "lat": 39.8617, "lon": 116.47297, "status": 0}
{"id": 713, "business_name": "Vision Advanced Solutions", "ts": 1199314391, "lat": 40.0724, "lon": 116.7794, "status": 3}
{"id": 714, "business_name": "Alpha Provider Software", "ts": 1199256732, "lat": 39.70012, "lon": 116.66869, "status": 3}
{"id": 715, "business_name": "Graphics Max Design", "ts": 1199182369, "lat": 39.96791, "lon": 116.56444, "status": 3}
{"id": 716, "business_name": "Power Contract Signal", "ts": 1201729124, "lat": 39.79628, "lon": 116.58569, "status": 0}
{"id": 717, "business_name": "Hardware Solutions People", "ts": 1199623594, "lat": 40.02778, "lon": 116.12958, "status": 1}
{"id": 718, "business_name": "West Internet Software", "ts": 1201388818, "lat": 39.89096, "lon": 116.54176, "status": 4}
{"id": 719, "business_name": "Network Digital Building", "ts": 1201712902, "lat": 39.76819, "lon": 116.64436, "status": 2}
{"id": 720, "business_name": "Venture Source", "ts": 1199938444, "lat": 39.81718, "lon": 116.12889, "status": 2}
{"id": 721, "business_name": "Net Source Design", "ts": 1201240781, "lat": 40.02862, "lon": 116.41122, "status": 0}
{"id": 722, "business_name": "Graphics Resource Alpha", "ts": 1199566869, "lat": 39.8661, "lon": 116.8684, "status": 1}
{"id": 723, "business_name": "West Advanced", "ts": 1201422372, "lat": 39.83386, "lon": 116.37895, "status": 1}
{"id": 724, "business_name": "Pacific Application", "ts": 1201693997, "lat": 39.92641, "lon": 116.25716, "status": 1}
{"id": 725, "business_name": "Venture Digital Omega", "ts": 1201853402, "lat": 40.04395, "lon": 116.53435, "status": 2}
{"id": 726, "business_name": "Atlantic Signal East", "ts": 1199643662, "lat": 40.03064, "lon": 116.85713, "status": 1}
{"id": 727, "business_name": "Design Digital Solutions", "ts": 1200713725, "lat": 40.00488, "lon": 116.30432, "status": 1}
{"id": 728, "business_name": "Electronic Net Vision", "ts": 1201522468, "lat": 39.8291, "lon": 116.20829, "status": 0}
{"id": 729, "business_name": "Construction Virtual", "ts": 1201637775, "lat": 39.72756, "lon": 116.78113, "status": 0}
{"id": 730, "business_name": "Interactive Analysis Studio", "ts": 1201858401, "lat": 39.83054, "lon": 116.30842, "status": 1}
{"id": 731, "business_name": "Contract Technology Future", "ts": 1201635961, "lat": 40.01097, "lon": 116.79755, "status": 3}
{"id": 732, "business_name": "Venture Contract Innovation", "ts": 1199964104, "lat": 39.80473, "lon": 116.37027, "status": 3}
{"id": 733, "business_name": "West Solutions Federated", "ts": 1200559434, "lat": 39.99385, "lon": 116.23456, "status": 4}
{"id": 734, "business_name": "Network Technology", "ts": 1200281341, "lat": 40.09657, "lon": 116.42957, "status": 3}
{"id": 735, "business_name": "Hardware Application Consulting", "ts": 1200458343, "lat": 39.96674, "lon": 116.30669, "status": 2}
{"id": 736, "business_name": "Medicine East Solutions", "ts": 1199892832, "lat": 39.8705, "lon": 116.12848, "status": 4}
{"id": 737, "business_name": "Data Net Star", "ts": 1200445497, "lat": 39.99733, "lon": 116.33889, "status": 2}
{"id": 738, "business_name": "Hill Electronic Speed", "ts": 1201121036, "lat": 39.97267, "lon": 116.37431, "status": 2}
{"id": 739, "business_name": "Hill Atlantic Vision", "ts": 1200485786, "lat": 39.73674, "lon": 116.84882, "status": 3}
{"id": 740, "business_name": "Bell Galaxy", "ts": 1201136092, "lat": 39.74091, "lon": 116.67309, "status": 3}
{"id": 741, "business_name": "Hill Research Net", "ts": 1201574517, "lat": 39.70399, "lon": 116.19559, "status": 2}
{"id": 742, "business_name": "Galaxy Advanced", "ts": 1200271245, "lat": 40.05856, "lon": 116.44876, "status": 2}
{"id": 743, "business_name": "Galaxy Bell Telecom", "ts": 1201171712, "lat": 40.05712, "lon": 116.59497, "status": 2}
{"id": 744, "business_name": "Graphics Systems", "ts": 1200637008, "lat": 40.01502, "lon": 116.60217, "status": 1}
{"id": 745, "business_name": "Star Vision", "ts": 1201450435, "lat": 39.9229, "lon": 116.53467, "status": 3}
{"id": 746, "business_name": "Bell Universal Data", "ts": 1200943520, "lat": 39.95134, "lon": 116.71728, "status": 2}
{"id": 747, "business_name": "Adventure Galaxy Direct", "ts": 1201266180, "lat": 39.87579, "lon": 116.77857, "status": 0}
{"id": 748, "business_name": "Galaxy People", "ts": 1201157768, "lat": 39.77303, "lon": 116.63079, "status": 3}
{"id": 749, "business_name": "Data Vision", "ts": 1199640410, "lat": 39.8973, "lon": 116.70121, "status": 4}
{"id": 750, "business_name": "Consulting Net Technology", "ts": 1200614364, "lat": 39.93793, "lon": 116.28584, "status": 1}
{"id": 751, "business_name": "Adventure Speed", "ts": 1201388704, "lat": 39.77282, "lon": 116.3594, "status": 3}
{"id": 752, "business_name": "Application Source Omega", "ts": 1199429906, "lat": 39.89535, "lon": 116.25412, "status": 4}
{"id": 753, "business_name": "Power Design", "ts": 1199742943, "lat": 39.74263, "lon": 116.65231, "status": 0}
{"id": 754, "business_name": "Internet South East", "ts": 1199433473, "lat": 40.01638, "lon": 116.24409, "status": 2}
{"id": 755, "business_name": "Resource Advanced Pacific", "ts": 1201084652, "lat": 39.73527, "lon": 116.6392, "status": 4}
{"id": 756, "business_name": "Net Software West", "ts": 1200229881, "lat": 40.09065, "lon": 116.78781, "status": 3}
{"id": 757, "business_name": "Electronics Vision General", "ts": 1199723845, "lat": 39.85809, "lon": 116.88509, "status": 0}
{"id": 758, "business_name": "Future Graphics Alpha", "ts": 1199862978, "lat": 39.89127, "lon": 116.10312, "status": 4}
{"id": 759, "business_name": "Net Electronics Internet", "ts": 1200480365, "lat": 39.7111, "lon": 116.41826, "status": 0}
{"id": 760, "business_name": "Vision Direct Consulting", "ts": 1199633475, "lat": 39.89166, "lon": 116.47837, "status": 3}
{"id": 761, "business_name": "North Internet Galaxy", "ts": 1201427998, "lat": 39.74405, "lon": 116.34716, "status": 0}
{"id": 762, "business_name": "General Star", "ts": 1201551616, "lat": 39.95969, "lon": 116.68731, "status": 3}
{"id": 763, "business_name": "Hardware Architecture", "ts": 1199466469, "lat": 40.00196, "lon": 116.37405, "status": 4}
{"id": 764, "business_name": "Architecture Software Pacific", "ts": 1201270846, "lat": 40.09452, "lon": 116.83851, "status": 2}
{"id": 765, "business_name": "Construction Max Star", "ts": 1200201271, "lat": 39.99134, "lon": 116.70906, "status": 1}
{"id": 766, "business_name": "Net Star", "ts": 1200117838, "lat": 39.90783, "lon": 116.33818, "status": 0}
{"id": 767, "business_name": "Adventure Universal Research", "ts": 1199785176, "lat": 39.76918, "lon": 116.72557, "status": 3}
{"id": 768, "business_name": "Hardware People", "ts": 1199324130, "lat": 39.94831, "lon": 116.38405, "status": 0}
{"id": 769, "business_name": "Hill Universal", "ts": 1201438600, "lat": 39.82948, "lon": 116.61238, "status": 1}
{"id": 770, "business_name": "Vision Contract North", "ts": 1199683773, "lat": 39.77084, "lon": 116.71671, "status": 1}
{"id": 771, "business_name": "Data Provider Alpha", "ts": 1201604500, "lat": 39.89345, "lon": 116.84527, "status": 0}
{"id": 772, "business_name": "Graphics Future Power", "ts": 1201147771, "lat": 40.09758, "lon": 116.56406, "status": 2}
{"id": 773, "business_name": "Technology Research People", "ts": 1200899134, "lat": 40.00414, "lon": 116.14173, "status": 0}
{"id": 774, "business_name": "Studio Application", "ts": 1200454614, "lat": 40.03145, "lon": 116.18724, "status": 3}
{"id": 775, "business_name": "Hardware Adventure Data", "ts": 1200551046, "lat": 40.03751, "lon": 116.54857, "status": 4}
{"id": 776, "business_name": "Analysis North Industries", "ts": 1200883428, "lat": 39.70151, "lon": 116.11642, "status": 0}
{"id": 777, "business_name": "Adventure Telecom Medicine", "ts": 1201350923, "lat": 39.8566, "lon": 116.20052, "status": 0}
{"id": 778, "business_name": "Vision Systems", "ts": 1199424001, "lat": 39.976, "lon": 116.52344, "status": 4}
{"id": 779, "business_name": "Star Speed Provider", "ts": 1199284282, "lat": 40.00045, "lon": 116.33898, "status": 0}
{"id": 780, "business_name": "Resource Building Speed", "ts": 1201002797, "lat": 39.73037, "lon": 116.3074, "status": 4}
{"id": 781, "business_name": "Star Digital Innovation", "ts": 1199769032, "lat": 39.74699, "lon": 116.50778, "status": 1}
{"id": 782, "business_name": "Resource Universal Net", "ts": 1199273373, "lat": 39.75506, "lon": 116.54805, "status": 4}
{"id": 783, "business_name": "Technology Net Telecom", "ts": 1200908666, "lat": 40.04475, "lon": 116.38093, "status": 0}
{"id": 784, "business_name": "Max Pacific Future", "ts": 1201145367, "lat": 39.75219, "lon": 116.1767, "status": 3}
{"id": 785, "business_name": "South Building Graphics", "ts": 1199654366, "lat": 40.04665, "lon": 116.26543, "status": 1}
{"id": 786, "business_name": "Direct Direct", "ts": 1201856565, "lat": 39.75403, "lon": 116.81835, "status": 3}
{"id": 787, "business_name": "Hardware Solutions", "ts": 1201300468, "lat": 39.88168, "lon": 116.5051, "status": 1}
{"id": 788, "business_name": "Max Speed Studio", "ts": 1200037991, "lat": 39.98225, "lon": 116.82005, "status": 0}
{"id": 789, "business_name": "Star Research Advanced", "ts": 1201130776, "lat": 39.96385, "lon": 116.19048, "status": 4}
{"id": 790, "business_name": "Software Electronics Alpha", "ts": 1199393346, "lat": 39.92057, "lon": 116.21405, "status": 4}
{"id": 791, "business_name": "Advanced Application Venture", "ts": 1200314054, "lat": 39.93403, "lon": 116.85692, "status": 1}
{"id": 792, "business_name": "Universal Hill", "ts": 1201220096, "lat": 39.76441, "lon": 116.63654, "status": 4}
{"id": 793, "business_name": "Advanced South Signal", "ts": 1201480721, "lat": 39.79753, "lon": 116.73438, "status": 4}
{"id": 794, "business_name": "Future Solutions", "ts": 1201549237, "lat": 39.95985, "lon": 116.83899, "status": 0}
{"id": 795, "business_name": "Power Electronics", "ts": 1199274185, "lat": 39.80165, "lon": 116.64271, "status": 2}
{"id": 796, "business_name": "Architecture Solutions Industries", "ts": 1201957255, "lat": 40.02814, "lon": 116.53485, "status": 1}
{"id": 797, "business_name": "Speed Technology Resource", "ts": 1201254161, "lat": 40.04386, "lon": 116.4327, "status": 1}
{"id": 798, "business_name": "Industries Hill Net", "ts": 1199641680, "lat": 39.81745, "lon": 116.25792, "status": 2}
{"id": 799, "business_name": "Network Star Application", "ts": 1201063424, "lat": 39.86178, "lon": 116.57812, "status": 3}
{"id": 800, "business_name": "Omega Power Virtual", "ts": 1199749019, "lat": 39.71935, "lon": 116.88796, "status": 1}
{"id": 801, "business_name": "Direct Galaxy", "ts": 1200574574, "lat": 40.08933, "lon": 116.64536, "status": 3}
{"id": 802, "business_name": "Contract Pacific", "ts": 1200391060, "lat": 40.06892, "lon": 116.89479, "status": 3}
{"id": 803, "business_name": "Max Venture North", "ts": 1200539740, "lat": 39.75112, "lon": 116.11738, "status": 4}
{"id": 804, "business_name": "Source North Industries", "ts": 1201816564, "lat": 39.83156, "lon": 116.35031, "status": 2}
{"id": 805, "business_name": "East East", "ts": 1199215893, "lat": 39.96011, "lon": 116.29953, "status": 4}
{"id": 806, "business_name": "Resource Advanced", "ts": 1200895154, "lat": 39.86105, "lon": 116.41082, "status": 1}
{"id": 807, "business_name": "Galaxy Power", "ts": 1199203957, "lat": 39.90088, "lon": 116.78095, "status": 1}
{"id": 808, "business_name": "Electronics Data Frontier", "ts": 1199276744, "lat": 39.76157, "lon": 116.40501, "status": 4}
{"id": 809, "business_name": "Direct Digital", "ts": 1199945391, "lat": 39.95162, "lon": 116.48961, "status": 0}
{"id": 810, "business_name": "North Net Electronic", "ts": 1199728020, "lat": 40.02567, "lon": 116.30876, "status": 4}
{"id": 811, "business_name": "Virtual Power Advanced", "ts": 1201765460, "lat": 39.90203, "lon": 116.3986, "status": 0}
{"id": 812, "business_name": "South Source Net", "ts": 1201650157, "lat": 40.00152, "lon": 116.55193, "status": 0}
{"id": 813, "business_name": "General Virtual Contract", "ts": 1200172096, "lat": 39.7191, "lon": 116.29619, "status": 2}
{"id": 814, "business_name": "Construction Research Building", "ts": 1201217378, "lat": 40.09451, "lon": 116.80178, "status": 0}
{"id": 815, "business_name": "Universal Solutions", "ts": 1199612478, "lat": 39.91982, "lon": 116.53452, "status": 4}
{"id": 816, "business_name": "Solutions Network Consulting", "ts": 1201959471, "lat": 40.0688, "lon": 116.1804, "status": 2}
{"id": 817, "business_name": "Solutions Max", "ts": 1199559782, "lat": 39.9822, "lon": 116.52471, "status": 1}
{"id": 818, "business_name": "Advanced Venture", "ts": 1200639845, "lat": 39.79016, "lon": 116.18641, "status": 2}
{"id": 819, "business_name": "Star South Federated", "ts": 1200976693, "lat": 39.90468, "lon": 116.73509, "status": 1}
{"id": 820, "business_name": "Data Consulting Electronics", "ts": 1201647567, "lat": 39.73038, "lon": 116.45408, "status": 2}
{"id": 821, "business_name": "Max Solutions", "ts": 1199572468, "lat": 39.7932, "lon": 116.65778, "status": 3}
{"id": 822, "business_name": "Building Power Industries", "ts": 1201313734, "lat": 39.85085, "lon": 116.24665, "status": 4}
{"id": 823, "business_name": "Electronic Data", "ts": 1201969953, "lat": 39.9154, "lon": 116.4295, "status": 0}
{"id": 824, "business_name": "Net Alpha Omega", "ts": 1200571765, "lat": 39.8388, "lon": 116.48115, "status": 4}
{"id": 825, "business_name": "People Studio Alpha", "ts": 1199375703, "lat": 40.01428, "lon": 116.37037, "status": 4}
{"id": 826, "business_name": "Speed Virtual Power", "ts": 1201869251, "lat": 40.06472, "lon": 116.36638, "status": 0}
{"id": 827, "business_name": "Internet Vision Solutions", "ts": 1199248900, "lat": 39.732, "lon": 116.16356, "status": 0}
{"id": 828, "business_name": "South Atlantic Analysis", "ts": 1200162248, "lat": 39.82969, "lon": 116.38711, "status": 0}
{"id": 829, "business_name": "Signal Solutions", "ts": 1200233341, "lat": 39.90424, "lon": 116.64453, "status": 2}
{"id": 830, "business_name": "Provider Universal Design", "ts": 1200487163, "lat": 39.98409, "lon": 116.76395, "status": 1}
{"id": 831, "business_name": "Speed West", "ts": 1199660572, "lat": 39.8157, "lon": 116.55483, "status": 0}
{"id": 832, "business_name": "Speed West", "ts": 1201362252, "lat": 39.88911, "lon": 116.31453, "status": 3}
{"id": 833, "business_name": "Telecom Vision Max", "ts": 1201852171, "lat": 40.06395, "lon": 116.54876, "status": 0}
{"id": 834, "business_name": "East Medicine Atlantic", "ts": 1201808611, "lat": 40.09638, "lon": 116.78478, "status": 4}
{"id": 835, "business_name": "General Venture East", "ts": 1201230787, "lat": 39.84804, "lon": 116.26042, "status": 3}
{"id": 836, "business_name": "Interactive Power Internet", "ts": 1200874721, "lat": 40.03271, "lon": 116.61392, "status": 0}
